[
  {
    "type": "Feature",
    "properties": {
      "Altitude": 641.0,
      "Country": "Honshu-Japan",
      "Name": "Abu",
      "Type": "Shield volcanoes"
    },
    "geometry": {
      "coordinates": [
        131.6,
        34.5
      ],
      "type": "Point"
    }
  },
  {
    "type": "Feature",
    "properties": {
      "Altitude": 6046.0,
      "Country": "Chile-N",
      "Name": "Acamarachi",
      "Type": "Stratovolcano"
    },
    "geometry": {
      "coordinates": [
        -67.62,
        -23.3
      ],
      "type": "Point"
    }
  },
  {
    "type": "Feature",
    "properties": {
      "Altitude": 3976.0,
      "Country": "Guatemala",
      "Name": "Acatenango",
      "Type": "Stratovolcano"
    },
    "geometry": {
      "coordinates": [
        -90.88,
        14.5
      ],
      "type": "Point"
    }
  },
  {
    "type": "Feature",
    "properties": {
      "Altitude": 1689.0,
      "Country": "Turkey",
      "Name": "Acigol-Nevsehir",
      "Type": "Caldera"
    },
    "geometry": {
      "coordinates": [
        34.52,
        38.57
      ],
      "type": "Point"
    }
  },
  {
    "type": "Feature",
    "properties": {
      "Altitude": 3742.0,
      "Country": "US-Washington",
      "Name": "Adams",
      "Type": "Stratovolcano"
    },
    "geometry": {
      "coordinates": [
        -121.49,
        46.21
      ],
      "type": "Point"
    }
  },
  {
    "type": "Feature",
    "properties": {
      "Altitude": -39.0,
      "Country": "Pacific-C",
      "Name": "Adams Seamount",
      "Type": "Submarine volcano"
    },
    "geometry": {
      "coordinates": [
        -129.27,
        -25.37
      ],
      "type": "Point"
    }
  },
  {
    "type": "Feature",
    "properties": {
      "Altitude": 1718.0,
      "Country": "Honshu-Japan",
      "Name": "Adatara",
      "Type": "Stratovolcanoes"
    },
    "geometry": {
      "coordinates": [
        140.29,
        37.64
      ],
      "type": "Point"
    }
  },
  {
    "type": "Feature",
    "properties": {
      "Altitude": 1733.0,
      "Country": "Ethiopia",
      "Name": "Adwa",
      "Type": "Stratovolcano"
    },
    "geometry": {
      "coordinates": [
        40.84,
        10.07
      ],
      "type": "Point"
    }
  },
  {
    "type": "Feature",
    "properties": {
      "Altitude": 1295.0,
      "Country": "Ethiopia",
      "Name": "Afder",
      "Type": "Stratovolcano"
    },
    "geometry": {
      "coordinates": [
        40.85,
        13.08
      ],
      "type": "Point"
    }
  },
  {
    "type": "Feature",
    "properties": {
      "Altitude": 965.0,
      "Country": "Mariana Is-C Pacific",
      "Name": "Agrigan",
      "Type": "Stratovolcano"
    },
    "geometry": {
      "coordinates": [
        145.67,
        18.77
      ],
      "type": "Point"
    }
  },
  {
    "type": "Feature",
    "properties": {
      "Altitude": 3760.0,
      "Country": "Guatemala",
      "Name": "Agua",
      "Type": "Stratovolcano"
    },
    "geometry": {
      "coordinates": [
        -90.74,
        14.47
      ],
      "type": "Point"
    }
  },
  {
    "type": "Feature",
    "properties": {
      "Altitude": 947.0,
      "Country": "Azores",
      "Name": "Agua de Pau",
      "Type": "Stratovolcano"
    },
    "geometry": {
      "coordinates": [
        -25.47,
        37.77
      ],
      "type": "Point"
    }
  },
  {
    "type": "Feature",
    "properties": {
      "Altitude": 2546.0,
      "Country": "Chile-S",
      "Name": "Aguilera",
      "Type": "Stratovolcano"
    },
    "geometry": {
      "coordinates": [
        -73.75,
        -50.33
      ],
      "type": "Point"
    }
  },
  {
    "type": "Feature",
    "properties": {
      "Altitude": 3142.0,
      "Country": "Lesser Sunda Is",
      "Name": "Agung",
      "Type": "Stratovolcano"
    },
    "geometry": {
      "coordinates": [
        115.51,
        -8.34
      ],
      "type": "Point"
    }
  },
  {
    "type": "Feature",
    "properties": {
      "Altitude": -137.0,
      "Country": "Mariana Is-C Pacific",
      "Name": "Ahyi",
      "Type": "Submarine volcano"
    },
    "geometry": {
      "coordinates": [
        145.03,
        20.42
      ],
      "type": "Point"
    }
  },
  {
    "type": "Feature",
    "properties": {
      "Altitude": 1180.0,
      "Country": "Kamchatka",
      "Name": "Akademia Nauk",
      "Type": "Stratovolcanoes"
    },
    "geometry": {
      "coordinates": [
        159.45,
        53.98
      ],
      "type": "Point"
    }
  },
  {
    "type": "Feature",
    "properties": {
      "Altitude": 1828.0,
      "Country": "Honshu-Japan",
      "Name": "Akagi",
      "Type": "Stratovolcano"
    },
    "geometry": {
      "coordinates": [
        139.2,
        36.56
      ],
      "type": "Point"
    }
  },
  {
    "type": "Feature",
    "properties": {
      "Altitude": 1499.0,
      "Country": "Hokkaido-Japan",
      "Name": "Akan",
      "Type": "Caldera"
    },
    "geometry": {
      "coordinates": [
        144.01,
        43.38
      ],
      "type": "Point"
    }
  },
  {
    "type": "Feature",
    "properties": {
      "Altitude": 1956.0,
      "Country": "Kamchatka",
      "Name": "Akhtang",
      "Type": "Shield volcano"
    },
    "geometry": {
      "coordinates": [
        158.65,
        55.43
      ],
      "type": "Point"
    }
  },
  {
    "type": "Feature",
    "properties": {
      "Altitude": 1637.0,
      "Country": "Honshu-Japan",
      "Name": "Akita-Komaga-take",
      "Type": "Stratovolcanoes"
    },
    "geometry": {
      "coordinates": [
        140.8,
        39.76
      ],
      "type": "Point"
    }
  },
  {
    "type": "Feature",
    "properties": {
      "Altitude": 1366.0,
      "Country": "Honshu-Japan",
      "Name": "Akita-Yake-yama",
      "Type": "Stratovolcano"
    },
    "geometry": {
      "coordinates": [
        140.76,
        39.96
      ],
      "type": "Point"
    }
  },
  {
    "type": "Feature",
    "properties": {
      "Altitude": 584.0,
      "Country": "Ryukyu Is",
      "Name": "Akuseki-jima",
      "Type": "Stratovolcanoes"
    },
    "geometry": {
      "coordinates": [
        129.6,
        29.46
      ],
      "type": "Point"
    }
  },
  {
    "type": "Feature",
    "properties": {
      "Altitude": 1303.0,
      "Country": "Aleutian Is",
      "Name": "Akutan",
      "Type": "Stratovolcano"
    },
    "geometry": {
      "coordinates": [
        -165.99,
        54.13
      ],
      "type": "Point"
    }
  },
  {
    "type": "Feature",
    "properties": {
      "Altitude": 2339.0,
      "Country": "Kuril Is",
      "Name": "Alaid",
      "Type": "Stratovolcano"
    },
    "geometry": {
      "coordinates": [
        155.55,
        50.86
      ],
      "type": "Point"
    }
  },
  {
    "type": "Feature",
    "properties": {
      "Altitude": 744.0,
      "Country": "Mariana Is-C Pacific",
      "Name": "Alamagan",
      "Type": "Stratovolcano"
    },
    "geometry": {
      "coordinates": [
        145.83,
        17.6
      ],
      "type": "Point"
    }
  },
  {
    "type": "Feature",
    "properties": {
      "Altitude": 1501.0,
      "Country": "Ethiopia",
      "Name": "Alayta",
      "Type": "Shield volcano"
    },
    "geometry": {
      "coordinates": [
        40.57,
        12.88
      ],
      "type": "Point"
    }
  },
  {
    "type": "Feature",
    "properties": {
      "Altitude": 949.0,
      "Country": "Italy",
      "Name": "Alban Hills",
      "Type": "Caldera"
    },
    "geometry": {
      "coordinates": [
        12.7,
        41.73
      ],
      "type": "Point"
    }
  },
  {
    "type": "Feature",
    "properties": {
      "Altitude": 1130.0,
      "Country": "Galapagos",
      "Name": "Alcedo",
      "Type": "Shield volcano"
    },
    "geometry": {
      "coordinates": [
        -91.12,
        -0.43
      ],
      "type": "Point"
    }
  },
  {
    "type": "Feature",
    "properties": {
      "Altitude": 1031.0,
      "Country": "Ethiopia",
      "Name": "Ale Bagu",
      "Type": "Stratovolcano"
    },
    "geometry": {
      "coordinates": [
        40.63,
        13.52
      ],
      "type": "Point"
    }
  },
  {
    "type": "Feature",
    "properties": {
      "Altitude": 904.0,
      "Country": "Ethiopia",
      "Name": "Alid",
      "Type": "Stratovolcano"
    },
    "geometry": {
      "coordinates": [
        39.92,
        14.88
      ],
      "type": "Point"
    }
  },
  {
    "type": "Feature",
    "properties": {
      "Altitude": 2217.0,
      "Country": "Canada",
      "Name": "Alligator Lake",
      "Type": "Volcanic field"
    },
    "geometry": {
      "coordinates": [
        -135.42,
        60.42
      ],
      "type": "Point"
    }
  },
  {
    "type": "Feature",
    "properties": {
      "Altitude": 3197.0,
      "Country": "Guatemala",
      "Name": "Almolonga",
      "Type": "Stratovolcano"
    },
    "geometry": {
      "coordinates": [
        -91.48,
        14.82
      ],
      "type": "Point"
    }
  },
  {
    "type": "Feature",
    "properties": {
      "Altitude": 2598.0,
      "Country": "Kamchatka",
      "Name": "Alney-Chashakondzha",
      "Type": "Stratovolcano"
    },
    "geometry": {
      "coordinates": [
        159.65,
        56.7
      ],
      "type": "Point"
    }
  },
  {
    "type": "Feature",
    "properties": {
      "Altitude": 1853.0,
      "Country": "Kamchatka",
      "Name": "Alngey",
      "Type": "Stratovolcano"
    },
    "geometry": {
      "coordinates": [
        160.4,
        57.7
      ],
      "type": "Point"
    }
  },
  {
    "type": "Feature",
    "properties": {
      "Altitude": 429.0,
      "Country": "Ethiopia",
      "Name": "Alu",
      "Type": "Fissure vents"
    },
    "geometry": {
      "coordinates": [
        40.55,
        13.82
      ],
      "type": "Point"
    }
  },
  {
    "type": "Feature",
    "properties": {
      "Altitude": 2335.0,
      "Country": "Ethiopia",
      "Name": "Alutu",
      "Type": "Stratovolcano"
    },
    "geometry": {
      "coordinates": [
        38.78,
        7.77
      ],
      "type": "Point"
    }
  },
  {
    "type": "Feature",
    "properties": {
      "Altitude": 488.0,
      "Country": "Aleutian Is",
      "Name": "Amak",
      "Type": "Stratovolcano"
    },
    "geometry": {
      "coordinates": [
        -163.15,
        55.42
      ],
      "type": "Point"
    }
  },
  {
    "type": "Feature",
    "properties": {
      "Altitude": 1030.0,
      "Country": "Halmahera-Indonesia",
      "Name": "Amasing",
      "Type": "Stratovolcanoes"
    },
    "geometry": {
      "coordinates": [
        127.48,
        -0.53
      ],
      "type": "Point"
    }
  },
  {
    "type": "Feature",
    "properties": {
      "Altitude": 2329.0,
      "Country": "Luzon-Philippines",
      "Name": "Ambalatungan Group",
      "Type": "Compound volcano"
    },
    "geometry": {
      "coordinates": [
        121.1,
        17.32
      ],
      "type": "Point"
    }
  },
  {
    "type": "Feature",
    "properties": {
      "Altitude": 1795.0,
      "Country": "Sulawesi-Indonesia",
      "Name": "Ambang",
      "Type": "Complex volcano"
    },
    "geometry": {
      "coordinates": [
        124.42,
        0.75
      ],
      "type": "Point"
    }
  },
  {
    "type": "Feature",
    "properties": {
      "Altitude": 450.0,
      "Country": "New Ireland-SW Pacific",
      "Name": "Ambitle",
      "Type": "Stratovolcano"
    },
    "geometry": {
      "coordinates": [
        153.65,
        -4.08
      ],
      "type": "Point"
    }
  },
  {
    "type": "Feature",
    "properties": {
      "Altitude": 1475.0,
      "Country": "Madagascar",
      "Name": "Ambre-Bobaomby",
      "Type": "Volcanic field"
    },
    "geometry": {
      "coordinates": [
        49.15,
        -12.6
      ],
      "type": "Point"
    }
  },
  {
    "type": "Feature",
    "properties": {
      "Altitude": 1334.0,
      "Country": "Vanuatu-SW Pacific",
      "Name": "Ambrym",
      "Type": "Pyroclastic shield"
    },
    "geometry": {
      "coordinates": [
        168.12,
        -16.25
      ],
      "type": "Point"
    }
  },
  {
    "type": "Feature",
    "properties": {
      "Altitude": 376.0,
      "Country": "Luzon-Philippines",
      "Name": "Amorong",
      "Type": "Lava domes"
    },
    "geometry": {
      "coordinates": [
        120.81,
        15.83
      ],
      "type": "Point"
    }
  },
  {
    "type": "Feature",
    "properties": {
      "Altitude": 881.0,
      "Country": "Indian O.-S",
      "Name": "Amsterdam Island",
      "Type": "Stratovolcano"
    },
    "geometry": {
      "coordinates": [
        77.52,
        -37.83
      ],
      "type": "Point"
    }
  },
  {
    "type": "Feature",
    "properties": {
      "Altitude": 1066.0,
      "Country": "Aleutian Is",
      "Name": "Amukta",
      "Type": "Stratovolcano"
    },
    "geometry": {
      "coordinates": [
        -171.25,
        52.5
      ],
      "type": "Point"
    }
  },
  {
    "type": "Feature",
    "properties": {
      "Altitude": 790.0,
      "Country": "Mariana Is-C Pacific",
      "Name": "Anatahan",
      "Type": "Stratovolcano"
    },
    "geometry": {
      "coordinates": [
        145.67,
        16.35
      ],
      "type": "Point"
    }
  },
  {
    "type": "Feature",
    "properties": {
      "Altitude": 1828.0,
      "Country": "Kamchatka",
      "Name": "Anaun",
      "Type": "Stratovolcano"
    },
    "geometry": {
      "coordinates": [
        158.83,
        56.32
      ],
      "type": "Point"
    }
  },
  {
    "type": "Feature",
    "properties": {
      "Altitude": 4713.0,
      "Country": "Peru",
      "Name": "Andahua-Orcopampa",
      "Type": "Cinder cones"
    },
    "geometry": {
      "coordinates": [
        -72.33,
        -15.42
      ],
      "type": "Point"
    }
  },
  {
    "type": "Feature",
    "properties": {
      "Altitude": 2978.0,
      "Country": "Antarctica",
      "Name": "Andrus",
      "Type": "Shield volcanoes"
    },
    "geometry": {
      "coordinates": [
        -132.33,
        -75.8
      ],
      "type": "Point"
    }
  },
  {
    "type": "Feature",
    "properties": {
      "Altitude": 852.0,
      "Country": "Vanuatu-SW Pacific",
      "Name": "Aneityum",
      "Type": "Stratovolcanoes"
    },
    "geometry": {
      "coordinates": [
        169.78,
        -20.2
      ],
      "type": "Point"
    }
  },
  {
    "type": "Feature",
    "properties": {
      "Altitude": 1341.0,
      "Country": "Alaska Peninsula",
      "Name": "Aniakchak",
      "Type": "Caldera"
    },
    "geometry": {
      "coordinates": [
        -158.17,
        56.88
      ],
      "type": "Point"
    }
  },
  {
    "type": "Feature",
    "properties": {
      "Altitude": 2878.0,
      "Country": "Madagascar",
      "Name": "Ankaizina Field",
      "Type": "Cinder cones"
    },
    "geometry": {
      "coordinates": [
        48.67,
        -14.3
      ],
      "type": "Point"
    }
  },
  {
    "type": "Feature",
    "properties": {
      "Altitude": 2644.0,
      "Country": "Madagascar",
      "Name": "Ankaratra Field",
      "Type": "Cinder cones"
    },
    "geometry": {
      "coordinates": [
        47.2,
        -19.4
      ],
      "type": "Point"
    }
  },
  {
    "type": "Feature",
    "properties": {
      "Altitude": 1990.0,
      "Country": "Chile-C",
      "Name": "Antillanca Group",
      "Type": "Stratovolcanoes"
    },
    "geometry": {
      "coordinates": [
        -72.15,
        -40.77
      ],
      "type": "Point"
    }
  },
  {
    "type": "Feature",
    "properties": {
      "Altitude": 402.0,
      "Country": "Pacific-S",
      "Name": "Antipodes Island",
      "Type": "Pyroclastic cones"
    },
    "geometry": {
      "coordinates": [
        178.77,
        -49.68
      ],
      "type": "Point"
    }
  },
  {
    "type": "Feature",
    "properties": {
      "Altitude": 5753.0,
      "Country": "Ecuador",
      "Name": "Antisana",
      "Type": "Stratovolcano"
    },
    "geometry": {
      "coordinates": [
        -78.14,
        -0.48
      ],
      "type": "Point"
    }
  },
  {
    "type": "Feature",
    "properties": {
      "Altitude": 4000.0,
      "Country": "Argentina",
      "Name": "Antofagasta de la Sierra",
      "Type": "Scoria cones"
    },
    "geometry": {
      "coordinates": [
        -67.5,
        -26.08
      ],
      "type": "Point"
    }
  },
  {
    "type": "Feature",
    "properties": {
      "Altitude": 2979.0,
      "Country": "Chile-C",
      "Name": "Antuco",
      "Type": "Stratovolcano"
    },
    "geometry": {
      "coordinates": [
        -71.35,
        -37.41
      ],
      "type": "Point"
    }
  },
  {
    "type": "Feature",
    "properties": {
      "Altitude": 1496.0,
      "Country": "Vanuatu-SW Pacific",
      "Name": "Aoba",
      "Type": "Shield volcano"
    },
    "geometry": {
      "coordinates": [
        167.83,
        -15.4
      ],
      "type": "Point"
    }
  },
  {
    "type": "Feature",
    "properties": {
      "Altitude": 423.0,
      "Country": "Izu Is-Japan",
      "Name": "Aoga-shima",
      "Type": "Stratovolcano"
    },
    "geometry": {
      "coordinates": [
        139.76,
        32.45
      ],
      "type": "Point"
    }
  },
  {
    "type": "Feature",
    "properties": {
      "Altitude": 1210.0,
      "Country": "Chile-S",
      "Name": "Apagado",
      "Type": "Pyroclastic cone"
    },
    "geometry": {
      "coordinates": [
        -72.58,
        -41.88
      ],
      "type": "Point"
    }
  },
  {
    "type": "Feature",
    "properties": {
      "Altitude": 2036.0,
      "Country": "El Salvador",
      "Name": "Apaneca Range",
      "Type": "Stratovolcanoes"
    },
    "geometry": {
      "coordinates": [
        -89.79,
        13.89
      ],
      "type": "Point"
    }
  },
  {
    "type": "Feature",
    "properties": {
      "Altitude": 700.0,
      "Country": "El Salvador",
      "Name": "Apastepeque Field",
      "Type": "Volcanic field"
    },
    "geometry": {
      "coordinates": [
        -88.77,
        13.72
      ],
      "type": "Point"
    }
  },
  {
    "type": "Feature",
    "properties": {
      "Altitude": 2938.0,
      "Country": "Mindanao-Philippines",
      "Name": "Apo",
      "Type": "Stratovolcano"
    },
    "geometry": {
      "coordinates": [
        125.27,
        6.99
      ],
      "type": "Point"
    }
  },
  {
    "type": "Feature",
    "properties": {
      "Altitude": 518.0,
      "Country": "Nicaragua",
      "Name": "Apoyeque",
      "Type": "Pyroclastic shield"
    },
    "geometry": {
      "coordinates": [
        -86.34,
        12.24
      ],
      "type": "Point"
    }
  },
  {
    "type": "Feature",
    "properties": {
      "Altitude": 6082.0,
      "Country": "Argentina",
      "Name": "Aracar",
      "Type": "Stratovolcano"
    },
    "geometry": {
      "coordinates": [
        -67.77,
        -24.25
      ],
      "type": "Point"
    }
  },
  {
    "type": "Feature",
    "properties": {
      "Altitude": 4095.0,
      "Country": "Armenia",
      "Name": "Aragats",
      "Type": "Stratovolcano"
    },
    "geometry": {
      "coordinates": [
        44.2,
        40.53
      ],
      "type": "Point"
    }
  },
  {
    "type": "Feature",
    "properties": {
      "Altitude": 181.0,
      "Country": "El Salvador",
      "Name": "Aramuaca: Laguna",
      "Type": "Maar"
    },
    "geometry": {
      "coordinates": [
        -88.11,
        13.43
      ],
      "type": "Point"
    }
  },
  {
    "type": "Feature",
    "properties": {
      "Altitude": 5165.0,
      "Country": "Turkey",
      "Name": "Ararat",
      "Type": "Stratovolcano"
    },
    "geometry": {
      "coordinates": [
        44.3,
        39.7
      ],
      "type": "Point"
    }
  },
  {
    "type": "Feature",
    "properties": {
      "Altitude": 1026.0,
      "Country": "Luzon-Philippines",
      "Name": "Arayat",
      "Type": "Stratovolcano"
    },
    "geometry": {
      "coordinates": [
        120.74,
        15.2
      ],
      "type": "Point"
    }
  },
  {
    "type": "Feature",
    "properties": {
      "Altitude": 298.0,
      "Country": "Djibouti",
      "Name": "Ardoukoba",
      "Type": "Fissure vents"
    },
    "geometry": {
      "coordinates": [
        42.47,
        11.58
      ],
      "type": "Point"
    }
  },
  {
    "type": "Feature",
    "properties": {
      "Altitude": 1670.0,
      "Country": "Costa Rica",
      "Name": "Arenal",
      "Type": "Stratovolcano"
    },
    "geometry": {
      "coordinates": [
        -84.7,
        10.46
      ],
      "type": "Point"
    }
  },
  {
    "type": "Feature",
    "properties": {
      "Altitude": 3437.0,
      "Country": "Chile-S",
      "Name": "Arenales",
      "Type": "Stratovolcano"
    },
    "geometry": {
      "coordinates": [
        -73.48,
        -47.2
      ],
      "type": "Point"
    }
  },
  {
    "type": "Feature",
    "properties": {
      "Altitude": 3100.0,
      "Country": "Arabia-S",
      "Name": "Arhab: Harra of",
      "Type": "Volcanic field"
    },
    "geometry": {
      "coordinates": [
        44.08,
        15.63
      ],
      "type": "Point"
    }
  },
  {
    "type": "Feature",
    "properties": {
      "Altitude": 3339.0,
      "Country": "Java",
      "Name": "Arjuno-Welirang",
      "Type": "Stratovolcano"
    },
    "geometry": {
      "coordinates": [
        112.58,
        -7.73
      ],
      "type": "Point"
    }
  },
  {
    "type": "Feature",
    "properties": {
      "Altitude": 1910.0,
      "Country": "Kamchatka",
      "Name": "Asacha",
      "Type": "Complex volcano"
    },
    "geometry": {
      "coordinates": [
        157.83,
        52.36
      ],
      "type": "Point"
    }
  },
  {
    "type": "Feature",
    "properties": {
      "Altitude": 2568.0,
      "Country": "Honshu-Japan",
      "Name": "Asama",
      "Type": "Complex volcano"
    },
    "geometry": {
      "coordinates": [
        138.53,
        36.4
      ],
      "type": "Point"
    }
  },
  {
    "type": "Feature",
    "properties": {
      "Altitude": 1200.0,
      "Country": "Ethiopia",
      "Name": "Asavyo",
      "Type": "Shield volcano"
    },
    "geometry": {
      "coordinates": [
        41.6,
        13.07
      ],
      "type": "Point"
    }
  },
  {
    "type": "Feature",
    "properties": {
      "Altitude": 858.0,
      "Country": "Atlantic-C",
      "Name": "Ascension",
      "Type": "Stratovolcano"
    },
    "geometry": {
      "coordinates": [
        -14.37,
        -7.95
      ],
      "type": "Point"
    }
  },
  {
    "type": "Feature",
    "properties": {
      "Altitude": 1516.0,
      "Country": "Iceland-NE",
      "Name": "Askja",
      "Type": "Stratovolcano"
    },
    "geometry": {
      "coordinates": [
        -16.75,
        65.03
      ],
      "type": "Point"
    }
  },
  {
    "type": "Feature",
    "properties": {
      "Altitude": 1592.0,
      "Country": "Kyushu-Japan",
      "Name": "Aso",
      "Type": "Caldera"
    },
    "geometry": {
      "coordinates": [
        131.11,
        32.88
      ],
      "type": "Point"
    }
  },
  {
    "type": "Feature",
    "properties": {
      "Altitude": 987.0,
      "Country": "Ethiopia",
      "Name": "Assab Volc Field",
      "Type": "Volcanic field"
    },
    "geometry": {
      "coordinates": [
        42.43,
        12.95
      ],
      "type": "Point"
    }
  },
  {
    "type": "Feature",
    "properties": {
      "Altitude": 857.0,
      "Country": "Mariana Is-C Pacific",
      "Name": "Asuncion",
      "Type": "Stratovolcano"
    },
    "geometry": {
      "coordinates": [
        145.41,
        19.67
      ],
      "type": "Point"
    }
  },
  {
    "type": "Feature",
    "properties": {
      "Altitude": 4463.0,
      "Country": "Ecuador",
      "Name": "Atacazo",
      "Type": "Stratovolcano"
    },
    "geometry": {
      "coordinates": [
        -78.62,
        -0.35
      ],
      "type": "Point"
    }
  },
  {
    "type": "Feature",
    "properties": {
      "Altitude": 2918.0,
      "Country": "Africa-N",
      "Name": "Atakor Volc Field",
      "Type": "Scoria cones"
    },
    "geometry": {
      "coordinates": [
        5.83,
        23.33
      ],
      "type": "Point"
    }
  },
  {
    "type": "Feature",
    "properties": {
      "Altitude": 3535.0,
      "Country": "Guatemala",
      "Name": "Atitlon",
      "Type": "Stratovolcano"
    },
    "geometry": {
      "coordinates": [
        -91.19,
        14.58
      ],
      "type": "Point"
    }
  },
  {
    "type": "Feature",
    "properties": {
      "Altitude": 1533.0,
      "Country": "Aleutian Is",
      "Name": "Atka",
      "Type": "Stratovolcanoes"
    },
    "geometry": {
      "coordinates": [
        -174.15,
        52.38
      ],
      "type": "Point"
    }
  },
  {
    "type": "Feature",
    "properties": {
      "Altitude": 1880.0,
      "Country": "Canada",
      "Name": "Atlin Volc Field",
      "Type": "Cinder cones"
    },
    "geometry": {
      "coordinates": [
        -133.32,
        59.68
      ],
      "type": "Point"
    }
  },
  {
    "type": "Feature",
    "properties": {
      "Altitude": 800.0,
      "Country": "Mexico",
      "Name": "Atlixcos: Los",
      "Type": "Shield volcano"
    },
    "geometry": {
      "coordinates": [
        -96.53,
        19.81
      ],
      "type": "Point"
    }
  },
  {
    "type": "Feature",
    "properties": {
      "Altitude": 1206.0,
      "Country": "Kuril Is",
      "Name": "Atsonupuri",
      "Type": "Stratovolcano"
    },
    "geometry": {
      "coordinates": [
        147.14,
        44.81
      ],
      "type": "Point"
    }
  },
  {
    "type": "Feature",
    "properties": {
      "Altitude": 5189.0,
      "Country": "Argentina",
      "Name": "Atuel: Caldera del",
      "Type": "Caldera"
    },
    "geometry": {
      "coordinates": [
        -70.05,
        -34.65
      ],
      "type": "Point"
    }
  },
  {
    "type": "Feature",
    "properties": {
      "Altitude": 260.0,
      "Country": "New Zealand",
      "Name": "Auckland Field",
      "Type": "Volcanic field"
    },
    "geometry": {
      "coordinates": [
        174.87,
        -36.9
      ],
      "type": "Point"
    }
  },
  {
    "type": "Feature",
    "properties": {
      "Altitude": 1252.0,
      "Country": "Alaska-SW",
      "Name": "Augustine",
      "Type": "Lava domes"
    },
    "geometry": {
      "coordinates": [
        -153.43,
        59.36
      ],
      "type": "Point"
    }
  },
  {
    "type": "Feature",
    "properties": {
      "Altitude": 4980.0,
      "Country": "Peru",
      "Name": "Auquihuato: Cerro",
      "Type": "Cinder cone"
    },
    "geometry": {
      "coordinates": [
        -73.18,
        -15.07
      ],
      "type": "Point"
    }
  },
  {
    "type": "Feature",
    "properties": {
      "Altitude": 2741.0,
      "Country": "Kamchatka",
      "Name": "Avachinsky",
      "Type": "Stratovolcano"
    },
    "geometry": {
      "coordinates": [
        158.83,
        53.26
      ],
      "type": "Point"
    }
  },
  {
    "type": "Feature",
    "properties": {
      "Altitude": 1320.0,
      "Country": "Sangihe Is-Indonesia",
      "Name": "Awu",
      "Type": "Stratovolcano"
    },
    "geometry": {
      "coordinates": [
        125.5,
        3.67
      ],
      "type": "Point"
    }
  },
  {
    "type": "Feature",
    "properties": {
      "Altitude": -1410.0,
      "Country": "Pacific-NE",
      "Name": "Axial Seamount",
      "Type": "Submarine volcano"
    },
    "geometry": {
      "coordinates": [
        -130.0,
        45.95
      ],
      "type": "Point"
    }
  },
  {
    "type": "Feature",
    "properties": {
      "Altitude": 2145.0,
      "Country": "Ethiopia",
      "Name": "Ayelu",
      "Type": "Stratovolcano"
    },
    "geometry": {
      "coordinates": [
        40.7,
        10.08
      ],
      "type": "Point"
    }
  },
  {
    "type": "Feature",
    "properties": {
      "Altitude": 2765.0,
      "Country": "Russia-SE",
      "Name": "Azas Plateau",
      "Type": "Volcanic field"
    },
    "geometry": {
      "coordinates": [
        98.6,
        52.52
      ],
      "type": "Point"
    }
  },
  {
    "type": "Feature",
    "properties": {
      "Altitude": 4070.0,
      "Country": "Colombia",
      "Name": "Azufral",
      "Type": "Stratovolcano"
    },
    "geometry": {
      "coordinates": [
        -77.68,
        1.08
      ],
      "type": "Point"
    }
  },
  {
    "type": "Feature",
    "properties": {
      "Altitude": 5846.0,
      "Country": "Chile-N",
      "Name": "Azufre: Cerro del",
      "Type": "Stratovolcano"
    },
    "geometry": {
      "coordinates": [
        -68.24,
        -21.79
      ],
      "type": "Point"
    }
  },
  {
    "type": "Feature",
    "properties": {
      "Altitude": 1640.0,
      "Country": "Galapagos",
      "Name": "Azul: Cerro",
      "Type": "Shield volcano"
    },
    "geometry": {
      "coordinates": [
        -91.41,
        -0.92
      ],
      "type": "Point"
    }
  },
  {
    "type": "Feature",
    "properties": {
      "Altitude": 3788.0,
      "Country": "Chile-C",
      "Name": "Azul: Cerro",
      "Type": "Stratovolcano"
    },
    "geometry": {
      "coordinates": [
        -70.76,
        -35.65
      ],
      "type": "Point"
    }
  },
  {
    "type": "Feature",
    "properties": {
      "Altitude": 201.0,
      "Country": "Nicaragua",
      "Name": "Azul: Volcan",
      "Type": "Cinder cones"
    },
    "geometry": {
      "coordinates": [
        -83.87,
        12.53
      ],
      "type": "Point"
    }
  },
  {
    "type": "Feature",
    "properties": {
      "Altitude": 2035.0,
      "Country": "Honshu-Japan",
      "Name": "Azuma",
      "Type": "Stratovolcanoes"
    },
    "geometry": {
      "coordinates": [
        140.25,
        37.73
      ],
      "type": "Point"
    }
  },
  {
    "type": "Feature",
    "properties": {
      "Altitude": 1080.0,
      "Country": "Luzon-N of",
      "Name": "Babuyan Claro",
      "Type": "Stratovolcanoes"
    },
    "geometry": {
      "coordinates": [
        121.94,
        19.52
      ],
      "type": "Point"
    }
  },
  {
    "type": "Feature",
    "properties": {
      "Altitude": 2763.0,
      "Country": "US-Oregon",
      "Name": "Bachelor",
      "Type": "Stratovolcano"
    },
    "geometry": {
      "coordinates": [
        -121.69,
        43.98
      ],
      "type": "Point"
    }
  },
  {
    "type": "Feature",
    "properties": {
      "Altitude": 1750.0,
      "Country": "Bougainville-SW Pacific",
      "Name": "Bagana",
      "Type": "Lava cone"
    },
    "geometry": {
      "coordinates": [
        155.2,
        -6.14
      ],
      "type": "Point"
    }
  },
  {
    "type": "Feature",
    "properties": {
      "Altitude": 2278.0,
      "Country": "Kamchatka",
      "Name": "Bakening",
      "Type": "Stratovolcano"
    },
    "geometry": {
      "coordinates": [
        158.07,
        53.91
      ],
      "type": "Point"
    }
  },
  {
    "type": "Feature",
    "properties": {
      "Altitude": 3285.0,
      "Country": "US-Washington",
      "Name": "Baker",
      "Type": "Stratovolcanoes"
    },
    "geometry": {
      "coordinates": [
        -121.81,
        48.78
      ],
      "type": "Point"
    }
  },
  {
    "type": "Feature",
    "properties": {
      "Altitude": 233.0,
      "Country": "Arabia-S",
      "Name": "Bal Haf: Harra of",
      "Type": "Volcanic field"
    },
    "geometry": {
      "coordinates": [
        48.33,
        14.05
      ],
      "type": "Point"
    }
  },
  {
    "type": "Feature",
    "properties": {
      "Altitude": 2450.0,
      "Country": "Mindanao-Philippines",
      "Name": "Balatukan",
      "Type": "Compound volcano"
    },
    "geometry": {
      "coordinates": [
        124.98,
        8.77
      ],
      "type": "Point"
    }
  },
  {
    "type": "Feature",
    "properties": {
      "Altitude": 2715.0,
      "Country": "Bougainville-SW Pacific",
      "Name": "Balbi",
      "Type": "Stratovolcano"
    },
    "geometry": {
      "coordinates": [
        154.98,
        -5.92
      ],
      "type": "Point"
    }
  },
  {
    "type": "Feature",
    "properties": {
      "Altitude": 2135.0,
      "Country": "US-Utah",
      "Name": "Bald Knoll",
      "Type": "Cinder cones"
    },
    "geometry": {
      "coordinates": [
        -112.41,
        37.33
      ],
      "type": "Point"
    }
  },
  {
    "type": "Feature",
    "properties": {
      "Altitude": 254.0,
      "Country": "Admiralty Is-SW Pacific",
      "Name": "Baluan",
      "Type": "Stratovolcano"
    },
    "geometry": {
      "coordinates": [
        147.28,
        -2.57
      ],
      "type": "Point"
    }
  },
  {
    "type": "Feature",
    "properties": {
      "Altitude": 1247.0,
      "Country": "Java",
      "Name": "Baluran",
      "Type": "Stratovolcano"
    },
    "geometry": {
      "coordinates": [
        114.37,
        -7.85
      ],
      "type": "Point"
    }
  },
  {
    "type": "Feature",
    "properties": {
      "Altitude": 862.0,
      "Country": "Mindanao-Philippines",
      "Name": "Balut",
      "Type": "Stratovolcano"
    },
    "geometry": {
      "coordinates": [
        125.38,
        5.4
      ],
      "type": "Point"
    }
  },
  {
    "type": "Feature",
    "properties": {
      "Altitude": 685.0,
      "Country": "New Guinea-NE of",
      "Name": "Bam",
      "Type": "Stratovolcano"
    },
    "geometry": {
      "coordinates": [
        144.82,
        -3.61
      ],
      "type": "Point"
    }
  },
  {
    "type": "Feature",
    "properties": {
      "Altitude": 2248.0,
      "Country": "New Britain-SW Pac",
      "Name": "Bamus",
      "Type": "Stratovolcano"
    },
    "geometry": {
      "coordinates": [
        151.23,
        -5.2
      ],
      "type": "Point"
    }
  },
  {
    "type": "Feature",
    "properties": {
      "Altitude": 2158.0,
      "Country": "Luzon-Philippines",
      "Name": "Banahaw",
      "Type": "Complex volcano"
    },
    "geometry": {
      "coordinates": [
        121.48,
        14.07
      ],
      "type": "Point"
    }
  },
  {
    "type": "Feature",
    "properties": {
      "Altitude": 640.0,
      "Country": "Banda Sea",
      "Name": "Banda Api",
      "Type": "Caldera"
    },
    "geometry": {
      "coordinates": [
        129.87,
        -4.53
      ],
      "type": "Point"
    }
  },
  {
    "type": "Feature",
    "properties": {
      "Altitude": 1819.0,
      "Country": "Honshu-Japan",
      "Name": "Bandai",
      "Type": "Stratovolcano"
    },
    "geometry": {
      "coordinates": [
        140.08,
        37.6
      ],
      "type": "Point"
    }
  },
  {
    "type": "Feature",
    "properties": {
      "Altitude": -5.0,
      "Country": "Sangihe Is-Indonesia",
      "Name": "Banua Wuhu",
      "Type": "Submarine volcano"
    },
    "geometry": {
      "coordinates": [
        125.49,
        3.14
      ],
      "type": "Point"
    }
  },
  {
    "type": "Feature",
    "properties": {
      "Altitude": 1132.0,
      "Country": "Kuril Is",
      "Name": "Baransky",
      "Type": "Stratovolcano"
    },
    "geometry": {
      "coordinates": [
        148.02,
        45.1
      ],
      "type": "Point"
    }
  },
  {
    "type": "Feature",
    "properties": {
      "Altitude": 332.0,
      "Country": "Mexico-Is",
      "Name": "Borcena",
      "Type": "Cinder cones"
    },
    "geometry": {
      "coordinates": [
        -110.82,
        19.3
      ],
      "type": "Point"
    }
  },
  {
    "type": "Feature",
    "properties": {
      "Altitude": 2000.0,
      "Country": "Iceland-NE",
      "Name": "Bordarbunga",
      "Type": "Stratovolcano"
    },
    "geometry": {
      "coordinates": [
        -17.53,
        64.63
      ],
      "type": "Point"
    }
  },
  {
    "type": "Feature",
    "properties": {
      "Altitude": 870.0,
      "Country": "Kamchatka",
      "Name": "Barkhatnaya Sopka",
      "Type": "Lava domes"
    },
    "geometry": {
      "coordinates": [
        158.27,
        52.82
      ],
      "type": "Point"
    }
  },
  {
    "type": "Feature",
    "properties": {
      "Altitude": 354.0,
      "Country": "Andaman Is-Indian O",
      "Name": "Barren Island",
      "Type": "Stratovolcano"
    },
    "geometry": {
      "coordinates": [
        93.86,
        12.28
      ],
      "type": "Point"
    }
  },
  {
    "type": "Feature",
    "properties": {
      "Altitude": 1032.0,
      "Country": "Africa-E",
      "Name": "Barrier: The",
      "Type": "Shield volcano"
    },
    "geometry": {
      "coordinates": [
        36.57,
        2.32
      ],
      "type": "Point"
    }
  },
  {
    "type": "Feature",
    "properties": {
      "Altitude": 3474.0,
      "Country": "Panama",
      "Name": "Bar",
      "Type": "Stratovolcano"
    },
    "geometry": {
      "coordinates": [
        -82.54,
        8.81
      ],
      "type": "Point"
    }
  },
  {
    "type": "Feature",
    "properties": {
      "Altitude": 2906.0,
      "Country": "Costa Rica",
      "Name": "Barva",
      "Type": "Complex volcano"
    },
    "geometry": {
      "coordinates": [
        -84.1,
        10.14
      ],
      "type": "Point"
    }
  },
  {
    "type": "Feature",
    "properties": {
      "Altitude": 392.0,
      "Country": "SE Asia",
      "Name": "Bas Dong Nai",
      "Type": "Volcanic field"
    },
    "geometry": {
      "coordinates": [
        107.2,
        10.8
      ],
      "type": "Point"
    }
  },
  {
    "type": "Feature",
    "properties": {
      "Altitude": 1717.0,
      "Country": "Lesser Sunda Is",
      "Name": "Batur",
      "Type": "Caldera"
    },
    "geometry": {
      "coordinates": [
        115.38,
        -8.24
      ],
      "type": "Point"
    }
  },
  {
    "type": "Feature",
    "properties": {
      "Altitude": 5401.0,
      "Country": "Chile-N",
      "Name": "Bayo: Cerro",
      "Type": "Complex volcano"
    },
    "geometry": {
      "coordinates": [
        -68.58,
        -25.42
      ],
      "type": "Point"
    }
  },
  {
    "type": "Feature",
    "properties": {
      "Altitude": 11.0,
      "Country": "Izu Is-Japan",
      "Name": "Bayonnaise Rocks",
      "Type": "Submarine volcano"
    },
    "geometry": {
      "coordinates": [
        139.92,
        31.88
      ],
      "type": "Point"
    }
  },
  {
    "type": "Feature",
    "properties": {
      "Altitude": 670.0,
      "Country": "Africa-N",
      "Name": "Bayuda Volc Field",
      "Type": "Cinder cones"
    },
    "geometry": {
      "coordinates": [
        32.75,
        18.33
      ],
      "type": "Point"
    }
  },
  {
    "type": "Feature",
    "properties": {
      "Altitude": 3490.0,
      "Country": "Iran",
      "Name": "Bazman",
      "Type": "Stratovolcano"
    },
    "geometry": {
      "coordinates": [
        60.0,
        28.07
      ],
      "type": "Point"
    }
  },
  {
    "type": "Feature",
    "properties": {
      "Altitude": 2277.0,
      "Country": "Atlantic-N-Jan Mayen",
      "Name": "Beerenberg",
      "Type": "Stratovolcano"
    },
    "geometry": {
      "coordinates": [
        -8.17,
        71.08
      ],
      "type": "Point"
    }
  },
  {
    "type": "Feature",
    "properties": {
      "Altitude": 500.0,
      "Country": "Alaska-E",
      "Name": "Behm Canal-Rudyerd Bay",
      "Type": "Cinder cones"
    },
    "geometry": {
      "coordinates": [
        -131.05,
        55.32
      ],
      "type": "Point"
    }
  },
  {
    "type": "Feature",
    "properties": {
      "Altitude": 892.0,
      "Country": "Kamchatka",
      "Name": "Belenkaya",
      "Type": "Stratovolcano"
    },
    "geometry": {
      "coordinates": [
        157.27,
        51.75
      ],
      "type": "Point"
    }
  },
  {
    "type": "Feature",
    "properties": {
      "Altitude": 1958.0,
      "Country": "Sumatra",
      "Name": "Belirang-Beriti",
      "Type": "Compound volcano"
    },
    "geometry": {
      "coordinates": [
        102.18,
        -2.82
      ],
      "type": "Point"
    }
  },
  {
    "type": "Feature",
    "properties": {
      "Altitude": 2095.0,
      "Country": "US-Oregon",
      "Name": "Belknap",
      "Type": "Shield volcanoes"
    },
    "geometry": {
      "coordinates": [
        -121.84,
        44.29
      ],
      "type": "Point"
    }
  },
  {
    "type": "Feature",
    "properties": {
      "Altitude": 2080.0,
      "Country": "Kamchatka",
      "Name": "Bely",
      "Type": "Shield volcanoes"
    },
    "geometry": {
      "coordinates": [
        160.53,
        57.88
      ],
      "type": "Point"
    }
  },
  {
    "type": "Feature",
    "properties": {
      "Altitude": 3478.0,
      "Country": "Antarctica",
      "Name": "Berlin",
      "Type": "Shield volcanoes"
    },
    "geometry": {
      "coordinates": [
        -136.0,
        -76.05
      ],
      "type": "Point"
    }
  },
  {
    "type": "Feature",
    "properties": {
      "Altitude": 1100.0,
      "Country": "Ethiopia",
      "Name": "Beru",
      "Type": "Volcanic field"
    },
    "geometry": {
      "coordinates": [
        39.75,
        8.95
      ],
      "type": "Point"
    }
  },
  {
    "type": "Feature",
    "properties": {
      "Altitude": 1221.0,
      "Country": "Kuril Is",
      "Name": "Berutarube",
      "Type": "Stratovolcano"
    },
    "geometry": {
      "coordinates": [
        146.94,
        44.46
      ],
      "type": "Point"
    }
  },
  {
    "type": "Feature",
    "properties": {
      "Altitude": 1899.0,
      "Country": "Sumatra",
      "Name": "Besar",
      "Type": "Stratovolcano ?"
    },
    "geometry": {
      "coordinates": [
        103.67,
        -4.43
      ],
      "type": "Point"
    }
  },
  {
    "type": "Feature",
    "properties": {
      "Altitude": 2882.0,
      "Country": "Kamchatka",
      "Name": "Bezymianny",
      "Type": "Stratovolcano"
    },
    "geometry": {
      "coordinates": [
        160.59,
        55.98
      ],
      "type": "Point"
    }
  },
  {
    "type": "Feature",
    "properties": {
      "Altitude": 900.0,
      "Country": "Halmahera-Indonesia",
      "Name": "Bibinoi",
      "Type": "Stratovolcanoes"
    },
    "geometry": {
      "coordinates": [
        127.72,
        -0.77
      ],
      "type": "Point"
    }
  },
  {
    "type": "Feature",
    "properties": {
      "Altitude": 1700.0,
      "Country": "Ethiopia",
      "Name": "Bilate River Field",
      "Type": "Maars"
    },
    "geometry": {
      "coordinates": [
        38.1,
        7.07
      ],
      "type": "Point"
    }
  },
  {
    "type": "Feature",
    "properties": {
      "Altitude": 1301.0,
      "Country": "Philippines-C",
      "Name": "Biliran",
      "Type": "Compound volcano"
    },
    "geometry": {
      "coordinates": [
        124.54,
        11.52
      ],
      "type": "Point"
    }
  },
  {
    "type": "Feature",
    "properties": {
      "Altitude": 1544.0,
      "Country": "Bougainville-SW Pacific",
      "Name": "Billy Mitchell",
      "Type": "Pyroclastic shield"
    },
    "geometry": {
      "coordinates": [
        155.23,
        -6.09
      ],
      "type": "Point"
    }
  },
  {
    "type": "Feature",
    "properties": {
      "Altitude": "",
      "Country": "Arabia-S",
      "Name": "Bir Borhut",
      "Type": "Volcanic field"
    },
    "geometry": {
      "coordinates": [
        50.63,
        15.55
      ],
      "type": "Point"
    }
  },
  {
    "type": "Feature",
    "properties": {
      "Altitude": 381.0,
      "Country": "Arabia-W",
      "Name": "Birk: Harrat al",
      "Type": "Volcanic field"
    },
    "geometry": {
      "coordinates": [
        41.63,
        18.37
      ],
      "type": "Point"
    }
  },
  {
    "type": "Feature",
    "properties": {
      "Altitude": 1850.0,
      "Country": "Ethiopia",
      "Name": "Bishoftu Volc Field",
      "Type": "Fissure vents"
    },
    "geometry": {
      "coordinates": [
        38.98,
        8.78
      ],
      "type": "Point"
    }
  },
  {
    "type": "Feature",
    "properties": {
      "Altitude": "",
      "Country": "Africa-W",
      "Name": "Biu Plateau",
      "Type": "Volcanic field"
    },
    "geometry": {
      "coordinates": [
        12.0,
        10.75
      ],
      "type": "Point"
    }
  },
  {
    "type": "Feature",
    "properties": {
      "Altitude": 1032.0,
      "Country": "Alaska Peninsula",
      "Name": "Black Peak",
      "Type": "Stratovolcano"
    },
    "geometry": {
      "coordinates": [
        -158.79,
        56.55
      ],
      "type": "Point"
    }
  },
  {
    "type": "Feature",
    "properties": {
      "Altitude": 1800.0,
      "Country": "US-Utah",
      "Name": "Black Rock Desert",
      "Type": "Volcanic field"
    },
    "geometry": {
      "coordinates": [
        -112.5,
        38.97
      ],
      "type": "Point"
    }
  },
  {
    "type": "Feature",
    "properties": {
      "Altitude": 2268.0,
      "Country": "Chile-C",
      "Name": "Blancas: Lomas",
      "Type": "Stratovolcano"
    },
    "geometry": {
      "coordinates": [
        -71.01,
        -36.29
      ],
      "type": "Point"
    }
  },
  {
    "type": "Feature",
    "properties": {
      "Altitude": 1244.0,
      "Country": "Kamchatka",
      "Name": "Bliznets",
      "Type": "Stratovolcano"
    },
    "geometry": {
      "coordinates": [
        159.78,
        56.97
      ],
      "type": "Point"
    }
  },
  {
    "type": "Feature",
    "properties": {
      "Altitude": 265.0,
      "Country": "Kamchatka",
      "Name": "Bliznetsy",
      "Type": "Lava cone"
    },
    "geometry": {
      "coordinates": [
        161.37,
        57.35
      ],
      "type": "Point"
    }
  },
  {
    "type": "Feature",
    "properties": {
      "Altitude": 1230.0,
      "Country": "US-Oregon",
      "Name": "Blue Lake Crater",
      "Type": "Maar"
    },
    "geometry": {
      "coordinates": [
        -121.77,
        44.41
      ],
      "type": "Point"
    }
  },
  {
    "type": "Feature",
    "properties": {
      "Altitude": 402.0,
      "Country": "New Guinea-NE of",
      "Name": "Blup Blup",
      "Type": "Stratovolcano"
    },
    "geometry": {
      "coordinates": [
        144.61,
        -3.51
      ],
      "type": "Point"
    }
  },
  {
    "type": "Feature",
    "properties": {
      "Altitude": 738.0,
      "Country": "Aleutian Is",
      "Name": "Bobrof",
      "Type": "Stratovolcano"
    },
    "geometry": {
      "coordinates": [
        -177.44,
        51.91
      ],
      "type": "Point"
    }
  },
  {
    "type": "Feature",
    "properties": {
      "Altitude": 1634.0,
      "Country": "Kuril Is",
      "Name": "Bogatyr Ridge",
      "Type": "Stratovolcano"
    },
    "geometry": {
      "coordinates": [
        147.34,
        44.83
      ],
      "type": "Point"
    }
  },
  {
    "type": "Feature",
    "properties": {
      "Altitude": 150.0,
      "Country": "Aleutian Is",
      "Name": "Bogoslof",
      "Type": "Submarine volcano"
    },
    "geometry": {
      "coordinates": [
        -168.03,
        53.93
      ],
      "type": "Point"
    }
  },
  {
    "type": "Feature",
    "properties": {
      "Altitude": 240.0,
      "Country": "New Guinea-NE of",
      "Name": "Boisa",
      "Type": "Stratovolcano"
    },
    "geometry": {
      "coordinates": [
        144.96,
        -3.99
      ],
      "type": "Point"
    }
  },
  {
    "type": "Feature",
    "properties": {
      "Altitude": 1155.0,
      "Country": "New Britain-SW Pac",
      "Name": "Bola",
      "Type": "Stratovolcano"
    },
    "geometry": {
      "coordinates": [
        150.03,
        -5.15
      ],
      "type": "Point"
    }
  },
  {
    "type": "Feature",
    "properties": {
      "Altitude": 1200.0,
      "Country": "Kamchatka",
      "Name": "Bolshe-Bannaya",
      "Type": "Lava domes"
    },
    "geometry": {
      "coordinates": [
        157.78,
        52.9
      ],
      "type": "Point"
    }
  },
  {
    "type": "Feature",
    "properties": {
      "Altitude": 1906.0,
      "Country": "Kamchatka",
      "Name": "Bolshoi Payalpan",
      "Type": "Shield volcanoes"
    },
    "geometry": {
      "coordinates": [
        157.78,
        55.88
      ],
      "type": "Point"
    }
  },
  {
    "type": "Feature",
    "properties": {
      "Altitude": 1720.0,
      "Country": "Kamchatka",
      "Name": "Bolshoi Semiachik",
      "Type": "Stratovolcanoes"
    },
    "geometry": {
      "coordinates": [
        160.02,
        54.32
      ],
      "type": "Point"
    }
  },
  {
    "type": "Feature",
    "properties": {
      "Altitude": 1401.0,
      "Country": "Kamchatka",
      "Name": "Bolshoi-Kekuknaysky",
      "Type": "Shield volcanoes"
    },
    "geometry": {
      "coordinates": [
        157.8,
        56.47
      ],
      "type": "Point"
    }
  },
  {
    "type": "Feature",
    "properties": {
      "Altitude": 531.0,
      "Country": "Borneo",
      "Name": "Bombalai",
      "Type": "Pyroclastic cone"
    },
    "geometry": {
      "coordinates": [
        117.88,
        4.4
      ],
      "type": "Point"
    }
  },
  {
    "type": "Feature",
    "properties": {
      "Altitude": -650.0,
      "Country": "Indian O.-S",
      "Name": "Boomerang Seamount",
      "Type": "Submarine volcano"
    },
    "geometry": {
      "coordinates": [
        77.83,
        -37.72
      ],
      "type": "Point"
    }
  },
  {
    "type": "Feature",
    "properties": {
      "Altitude": 2285.0,
      "Country": "Ethiopia",
      "Name": "Bora-Bericcio",
      "Type": "Pumice cones"
    },
    "geometry": {
      "coordinates": [
        39.03,
        8.27
      ],
      "type": "Point"
    }
  },
  {
    "type": "Feature",
    "properties": {
      "Altitude": 668.0,
      "Country": "Ethiopia",
      "Name": "Borale Ale",
      "Type": "Stratovolcano"
    },
    "geometry": {
      "coordinates": [
        40.6,
        13.73
      ],
      "type": "Point"
    }
  },
  {
    "type": "Feature",
    "properties": {
      "Altitude": 812.0,
      "Country": "Ethiopia",
      "Name": "Borawli",
      "Type": "Stratovolcano"
    },
    "geometry": {
      "coordinates": [
        40.98,
        13.3
      ],
      "type": "Point"
    }
  },
  {
    "type": "Feature",
    "properties": {
      "Altitude": 875.0,
      "Country": "Ethiopia",
      "Name": "Borawli",
      "Type": "Lava domes"
    },
    "geometry": {
      "coordinates": [
        41.45,
        11.63
      ],
      "type": "Point"
    }
  },
  {
    "type": "Feature",
    "properties": {
      "Altitude": 2447.0,
      "Country": "Ethiopia",
      "Name": "Boset-Bericha",
      "Type": "Stratovolcanoes"
    },
    "geometry": {
      "coordinates": [
        39.48,
        8.56
      ],
      "type": "Point"
    }
  },
  {
    "type": "Feature",
    "properties": {
      "Altitude": 780.0,
      "Country": "Atlantic-S",
      "Name": "Bouvet",
      "Type": "Shield volcano"
    },
    "geometry": {
      "coordinates": [
        3.35,
        -54.42
      ],
      "type": "Point"
    }
  },
  {
    "type": "Feature",
    "properties": {
      "Altitude": 2276.0,
      "Country": "Lesser Sunda Is",
      "Name": "Bratan",
      "Type": "Caldera"
    },
    "geometry": {
      "coordinates": [
        115.13,
        -8.28
      ],
      "type": "Point"
    }
  },
  {
    "type": "Feature",
    "properties": {
      "Altitude": 900.0,
      "Country": "Cape Verde Is",
      "Name": "Brava",
      "Type": "Stratovolcano"
    },
    "geometry": {
      "coordinates": [
        -24.72,
        14.85
      ],
      "type": "Point"
    }
  },
  {
    "type": "Feature",
    "properties": {
      "Altitude": 4000.0,
      "Country": "Colombia",
      "Name": "Bravo: Cerro",
      "Type": "Stratovolcano"
    },
    "geometry": {
      "coordinates": [
        -75.3,
        5.09
      ],
      "type": "Point"
    }
  },
  {
    "type": "Feature",
    "properties": {
      "Altitude": 626.0,
      "Country": "Iceland-SW",
      "Name": "Brennisteinsfjoll",
      "Type": "Crater rows"
    },
    "geometry": {
      "coordinates": [
        -21.83,
        63.92
      ],
      "type": "Point"
    }
  },
  {
    "type": "Feature",
    "properties": {
      "Altitude": 2500.0,
      "Country": "Canada",
      "Name": "Bridge River Cones",
      "Type": "Volcanic field"
    },
    "geometry": {
      "coordinates": [
        -123.4,
        50.8
      ],
      "type": "Point"
    }
  },
  {
    "type": "Feature",
    "properties": {
      "Altitude": 240.0,
      "Country": "Antarctica",
      "Name": "Bridgeman Island",
      "Type": "Stratovolcano"
    },
    "geometry": {
      "coordinates": [
        -56.75,
        -62.05
      ],
      "type": "Point"
    }
  },
  {
    "type": "Feature",
    "properties": {
      "Altitude": 1100.0,
      "Country": "Antarctica",
      "Name": "Bristol Island",
      "Type": "Stratovolcano"
    },
    "geometry": {
      "coordinates": [
        -26.58,
        -59.03
      ],
      "type": "Point"
    }
  },
  {
    "type": "Feature",
    "properties": {
      "Altitude": -1350.0,
      "Country": "New Zealand",
      "Name": "Brothers",
      "Type": "Submarine volcano"
    },
    "geometry": {
      "coordinates": [
        179.08,
        -34.88
      ],
      "type": "Point"
    }
  },
  {
    "type": "Feature",
    "properties": {
      "Altitude": 1174.0,
      "Country": "US-California",
      "Name": "Brushy Butte",
      "Type": "Shield volcano"
    },
    "geometry": {
      "coordinates": [
        -121.44,
        41.18
      ],
      "type": "Point"
    }
  },
  {
    "type": "Feature",
    "properties": {
      "Altitude": 1239.0,
      "Country": "Antarctica",
      "Name": "Buckle Island",
      "Type": "Stratovolcano"
    },
    "geometry": {
      "coordinates": [
        163.25,
        -66.78
      ],
      "type": "Point"
    }
  },
  {
    "type": "Feature",
    "properties": {
      "Altitude": 2440.0,
      "Country": "Africa-C",
      "Name": "Bufumbira",
      "Type": "Cinder cones"
    },
    "geometry": {
      "coordinates": [
        29.72,
        -1.23
      ],
      "type": "Point"
    }
  },
  {
    "type": "Feature",
    "properties": {
      "Altitude": 656.0,
      "Country": "Aleutian Is",
      "Name": "Buldir",
      "Type": "Stratovolcano"
    },
    "geometry": {
      "coordinates": [
        175.91,
        52.35
      ],
      "type": "Point"
    }
  },
  {
    "type": "Feature",
    "properties": {
      "Altitude": 1565.0,
      "Country": "Luzon-Philippines",
      "Name": "Bulusan",
      "Type": "Stratovolcanoes"
    },
    "geometry": {
      "coordinates": [
        124.05,
        12.77
      ],
      "type": "Point"
    }
  },
  {
    "type": "Feature",
    "properties": {
      "Altitude": 1554.0,
      "Country": "Africa-C",
      "Name": "Bunyaruguru Field",
      "Type": "Maars"
    },
    "geometry": {
      "coordinates": [
        30.08,
        -0.2
      ],
      "type": "Point"
    }
  },
  {
    "type": "Feature",
    "properties": {
      "Altitude": 1758.0,
      "Country": "Chile-S",
      "Name": "Burney: Monte",
      "Type": "Stratovolcano"
    },
    "geometry": {
      "coordinates": [
        -73.4,
        -52.33
      ],
      "type": "Point"
    }
  },
  {
    "type": "Feature",
    "properties": {
      "Altitude": 1162.0,
      "Country": "Mongolia",
      "Name": "Bus-Obo",
      "Type": "Cinder cone"
    },
    "geometry": {
      "coordinates": [
        109.08,
        47.12
      ],
      "type": "Point"
    }
  },
  {
    "type": "Feature",
    "properties": {
      "Altitude": 2281.0,
      "Country": "Ethiopia",
      "Name": "Butajiri-Silti Field",
      "Type": "Fissure vents"
    },
    "geometry": {
      "coordinates": [
        38.35,
        8.05
      ],
      "type": "Point"
    }
  },
  {
    "type": "Feature",
    "properties": {
      "Altitude": 830.0,
      "Country": "Alaska-E",
      "Name": "Buzzard Creek",
      "Type": "Tuff rings"
    },
    "geometry": {
      "coordinates": [
        -148.42,
        64.07
      ],
      "type": "Point"
    }
  },
  {
    "type": "Feature",
    "properties": {
      "Altitude": 945.0,
      "Country": "Philippines-C",
      "Name": "Cabal",
      "Type": "Stratovolcano"
    },
    "geometry": {
      "coordinates": [
        125.22,
        10.29
      ],
      "type": "Point"
    }
  },
  {
    "type": "Feature",
    "properties": {
      "Altitude": 1496.0,
      "Country": "Chile-C",
      "Name": "Caburgua-Huelemolle",
      "Type": "Cinder cones"
    },
    "geometry": {
      "coordinates": [
        -71.7,
        -39.25
      ],
      "type": "Point"
    }
  },
  {
    "type": "Feature",
    "properties": {
      "Altitude": 1133.0,
      "Country": "Luzon-Philippines",
      "Name": "Cagua",
      "Type": "Stratovolcano"
    },
    "geometry": {
      "coordinates": [
        122.12,
        18.22
      ],
      "type": "Point"
    }
  },
  {
    "type": "Feature",
    "properties": {
      "Altitude": 4450.0,
      "Country": "Chile-N",
      "Name": "Caichinque",
      "Type": "Stratovolcanoes"
    },
    "geometry": {
      "coordinates": [
        -67.73,
        -23.95
      ],
      "type": "Point"
    }
  },
  {
    "type": "Feature",
    "properties": {
      "Altitude": 3508.0,
      "Country": "Chile-C",
      "Name": "Calabozos",
      "Type": "Caldera"
    },
    "geometry": {
      "coordinates": [
        -70.5,
        -35.56
      ],
      "type": "Point"
    }
  },
  {
    "type": "Feature",
    "properties": {
      "Altitude": 1117.0,
      "Country": "Spain",
      "Name": "Calatrava Volc Field",
      "Type": "Pyroclastic cones"
    },
    "geometry": {
      "coordinates": [
        -4.02,
        38.87
      ],
      "type": "Point"
    }
  },
  {
    "type": "Feature",
    "properties": {
      "Altitude": 2003.0,
      "Country": "Chile-S",
      "Name": "Calbuco",
      "Type": "Stratovolcano"
    },
    "geometry": {
      "coordinates": [
        -72.61,
        -41.33
      ],
      "type": "Point"
    }
  },
  {
    "type": "Feature",
    "properties": {
      "Altitude": 3164.0,
      "Country": "Chile-C",
      "Name": "Callaqui",
      "Type": "Stratovolcano"
    },
    "geometry": {
      "coordinates": [
        -71.45,
        -37.92
      ],
      "type": "Point"
    }
  },
  {
    "type": "Feature",
    "properties": {
      "Altitude": 4095.0,
      "Country": "Africa-W",
      "Name": "Cameroon",
      "Type": "Stratovolcano"
    },
    "geometry": {
      "coordinates": [
        9.17,
        4.2
      ],
      "type": "Point"
    }
  },
  {
    "type": "Feature",
    "properties": {
      "Altitude": 1552.0,
      "Country": "Mindanao-Philippines",
      "Name": "Camiguin",
      "Type": "Stratovolcanoes"
    },
    "geometry": {
      "coordinates": [
        124.67,
        9.2
      ],
      "type": "Point"
    }
  },
  {
    "type": "Feature",
    "properties": {
      "Altitude": 712.0,
      "Country": "Luzon-N of",
      "Name": "Camiguin de Babuyanes",
      "Type": "Stratovolcano"
    },
    "geometry": {
      "coordinates": [
        121.86,
        18.83
      ],
      "type": "Point"
    }
  },
  {
    "type": "Feature",
    "properties": {
      "Altitude": 458.0,
      "Country": "Italy",
      "Name": "Campi Flegrei",
      "Type": "Caldera"
    },
    "geometry": {
      "coordinates": [
        14.14,
        40.83
      ],
      "type": "Point"
    }
  },
  {
    "type": "Feature",
    "properties": {
      "Altitude": -8.0,
      "Country": "Italy",
      "Name": "Campi Flegrei Mar Sicilia",
      "Type": "Submarine volcanoes"
    },
    "geometry": {
      "coordinates": [
        12.7,
        37.1
      ],
      "type": "Point"
    }
  },
  {
    "type": "Feature",
    "properties": {
      "Altitude": 550.0,
      "Country": "Antarctica",
      "Name": "Candlemas Island",
      "Type": "Stratovolcano"
    },
    "geometry": {
      "coordinates": [
        -26.67,
        -57.08
      ],
      "type": "Point"
    }
  },
  {
    "type": "Feature",
    "properties": {
      "Altitude": 2435.0,
      "Country": "Philippines-C",
      "Name": "Canlaon",
      "Type": "Stratovolcano"
    },
    "geometry": {
      "coordinates": [
        123.13,
        10.41
      ],
      "type": "Point"
    }
  },
  {
    "type": "Feature",
    "properties": {
      "Altitude": 2494.0,
      "Country": "US-New Mexico",
      "Name": "Capulin Mountain",
      "Type": "Cinder cones"
    },
    "geometry": {
      "coordinates": [
        -104.1,
        36.4
      ],
      "type": "Point"
    }
  },
  {
    "type": "Feature",
    "properties": {
      "Altitude": 1620.0,
      "Country": "Aleutian Is",
      "Name": "Carlisle",
      "Type": "Stratovolcano"
    },
    "geometry": {
      "coordinates": [
        -170.05,
        52.89
      ],
      "type": "Point"
    }
  },
  {
    "type": "Feature",
    "properties": {
      "Altitude": 1114.0,
      "Country": "Chile-C",
      "Name": "Carran-Los Venados",
      "Type": "Pyroclastic cones"
    },
    "geometry": {
      "coordinates": [
        -72.07,
        -40.35
      ],
      "type": "Point"
    }
  },
  {
    "type": "Feature",
    "properties": {
      "Altitude": 1731.0,
      "Country": "US-New Mexico",
      "Name": "Carrizozo",
      "Type": "Cinder cones"
    },
    "geometry": {
      "coordinates": [
        -105.93,
        33.78
      ],
      "type": "Point"
    }
  },
  {
    "type": "Feature",
    "properties": {
      "Altitude": 5650.0,
      "Country": "Peru",
      "Name": "Casiri: Nevados",
      "Type": "Stratovolcanoes"
    },
    "geometry": {
      "coordinates": [
        -69.81,
        -17.47
      ],
      "type": "Point"
    }
  },
  {
    "type": "Feature",
    "properties": {
      "Altitude": 2090.0,
      "Country": "Chile-S",
      "Name": "Cay",
      "Type": "Stratovolcano"
    },
    "geometry": {
      "coordinates": [
        -72.98,
        -45.06
      ],
      "type": "Point"
    }
  },
  {
    "type": "Feature",
    "properties": {
      "Altitude": 5790.0,
      "Country": "Ecuador",
      "Name": "Cayambe",
      "Type": "Compound volcano"
    },
    "geometry": {
      "coordinates": [
        -77.99,
        0.03
      ],
      "type": "Point"
    }
  },
  {
    "type": "Feature",
    "properties": {
      "Altitude": 506.0,
      "Country": "Chile-S",
      "Name": "Cayutu -La Viguer a",
      "Type": "Pyroclastic cones"
    },
    "geometry": {
      "coordinates": [
        -72.27,
        -41.25
      ],
      "type": "Point"
    }
  },
  {
    "type": "Feature",
    "properties": {
      "Altitude": 2280.0,
      "Country": "Mexico",
      "Name": "Ceboruco",
      "Type": "Stratovolcano"
    },
    "geometry": {
      "coordinates": [
        -104.51,
        21.13
      ],
      "type": "Point"
    }
  },
  {
    "type": "Feature",
    "properties": {
      "Altitude": -20.0,
      "Country": "SE Asia",
      "Name": "Cendres: Ile des",
      "Type": "Submarine volcanoes"
    },
    "geometry": {
      "coordinates": [
        109.01,
        10.16
      ],
      "type": "Point"
    }
  },
  {
    "type": "Feature",
    "properties": {
      "Altitude": 550.0,
      "Country": "Africa-E",
      "Name": "Central Island",
      "Type": "Tuff cones"
    },
    "geometry": {
      "coordinates": [
        36.04,
        3.5
      ],
      "type": "Point"
    }
  },
  {
    "type": "Feature",
    "properties": {
      "Altitude": 3078.0,
      "Country": "Java",
      "Name": "Cereme",
      "Type": "Stratovolcano"
    },
    "geometry": {
      "coordinates": [
        108.4,
        -6.89
      ],
      "type": "Point"
    }
  },
  {
    "type": "Feature",
    "properties": {
      "Altitude": 4643.0,
      "Country": "Ecuador",
      "Name": "Chacana",
      "Type": "Caldera"
    },
    "geometry": {
      "coordinates": [
        -78.25,
        -0.38
      ],
      "type": "Point"
    }
  },
  {
    "type": "Feature",
    "properties": {
      "Altitude": 6057.0,
      "Country": "Peru",
      "Name": "Chachani: Nevado",
      "Type": "Stratovolcano"
    },
    "geometry": {
      "coordinates": [
        -71.53,
        -16.19
      ],
      "type": "Point"
    }
  },
  {
    "type": "Feature",
    "properties": {
      "Altitude": 1142.0,
      "Country": "Aleutian Is",
      "Name": "Chagulak",
      "Type": "Stratovolcano"
    },
    "geometry": {
      "coordinates": [
        -171.13,
        52.58
      ],
      "type": "Point"
    }
  },
  {
    "type": "Feature",
    "properties": {
      "Altitude": 1464.0,
      "Country": "France",
      "Name": "Cha ne des Puys",
      "Type": "Cinder cones"
    },
    "geometry": {
      "coordinates": [
        2.97,
        45.78
      ],
      "type": "Point"
    }
  },
  {
    "type": "Feature",
    "properties": {
      "Altitude": 1122.0,
      "Country": "Chile-S",
      "Name": "Chait n",
      "Type": "Caldera"
    },
    "geometry": {
      "coordinates": [
        -72.65,
        -42.83
      ],
      "type": "Point"
    }
  },
  {
    "type": "Feature",
    "properties": {
      "Altitude": 2744.0,
      "Country": "China-E",
      "Name": "Changbaishan",
      "Type": "Stratovolcano"
    },
    "geometry": {
      "coordinates": [
        128.08,
        41.98
      ],
      "type": "Point"
    }
  },
  {
    "type": "Feature",
    "properties": {
      "Altitude": 1778.0,
      "Country": "Kamchatka",
      "Name": "Cherny",
      "Type": "Stratovolcano"
    },
    "geometry": {
      "coordinates": [
        159.67,
        56.82
      ],
      "type": "Point"
    }
  },
  {
    "type": "Feature",
    "properties": {
      "Altitude": 1868.0,
      "Country": "Kamchatka",
      "Name": "Cherpuk Group",
      "Type": "Pyroclastic cones"
    },
    "geometry": {
      "coordinates": [
        157.47,
        55.55
      ],
      "type": "Point"
    }
  },
  {
    "type": "Feature",
    "properties": {
      "Altitude": 3930.0,
      "Country": "Mexico",
      "Name": "Chichinautzin",
      "Type": "Volcanic field"
    },
    "geometry": {
      "coordinates": [
        -99.13,
        19.08
      ],
      "type": "Point"
    }
  },
  {
    "type": "Feature",
    "properties": {
      "Altitude": 1150.0,
      "Country": "Mexico",
      "Name": "Chich n: El",
      "Type": "Lava domes"
    },
    "geometry": {
      "coordinates": [
        -93.23,
        17.36
      ],
      "type": "Point"
    }
  },
  {
    "type": "Feature",
    "properties": {
      "Altitude": 2221.0,
      "Country": "Alaska Peninsula",
      "Name": "Chiginagak",
      "Type": "Stratovolcano"
    },
    "geometry": {
      "coordinates": [
        -156.99,
        57.14
      ],
      "type": "Point"
    }
  },
  {
    "type": "Feature",
    "properties": {
      "Altitude": 1816.0,
      "Country": "Kuril Is",
      "Name": "Chikurachki",
      "Type": "Stratovolcanoes"
    },
    "geometry": {
      "coordinates": [
        155.46,
        50.33
      ],
      "type": "Point"
    }
  },
  {
    "type": "Feature",
    "properties": {
      "Altitude": 5778.0,
      "Country": "Chile-N",
      "Name": "Chiliques",
      "Type": "Stratovolcano"
    },
    "geometry": {
      "coordinates": [
        -67.7,
        -23.58
      ],
      "type": "Point"
    }
  },
  {
    "type": "Feature",
    "properties": {
      "Altitude": 3212.0,
      "Country": "Chile-C",
      "Name": "Chill n: Nevados de",
      "Type": "Stratovolcano"
    },
    "geometry": {
      "coordinates": [
        -71.38,
        -36.86
      ],
      "type": "Point"
    }
  },
  {
    "type": "Feature",
    "properties": {
      "Altitude": 6310.0,
      "Country": "Ecuador",
      "Name": "Chimborazo",
      "Type": "Stratovolcano"
    },
    "geometry": {
      "coordinates": [
        -78.82,
        -1.46
      ],
      "type": "Point"
    }
  },
  {
    "type": "Feature",
    "properties": {
      "Altitude": 1300.0,
      "Country": "El Salvador",
      "Name": "Chinameca",
      "Type": "Stratovolcano"
    },
    "geometry": {
      "coordinates": [
        -88.33,
        13.48
      ],
      "type": "Point"
    }
  },
  {
    "type": "Feature",
    "properties": {
      "Altitude": 1775.0,
      "Country": "Guatemala",
      "Name": "Chingo",
      "Type": "Stratovolcano"
    },
    "geometry": {
      "coordinates": [
        -89.73,
        14.12
      ],
      "type": "Point"
    }
  },
  {
    "type": "Feature",
    "properties": {
      "Altitude": 1192.0,
      "Country": "Guatemala",
      "Name": "Chiquimula Volc Field",
      "Type": "Cinder cones"
    },
    "geometry": {
      "coordinates": [
        -89.55,
        14.83
      ],
      "type": "Point"
    }
  },
  {
    "type": "Feature",
    "properties": {
      "Altitude": 1650.0,
      "Country": "Ethiopia",
      "Name": "Chiracha",
      "Type": "Stratovolcano"
    },
    "geometry": {
      "coordinates": [
        38.12,
        6.65
      ],
      "type": "Point"
    }
  },
  {
    "type": "Feature",
    "properties": {
      "Altitude": 724.0,
      "Country": "Kuril Is",
      "Name": "Chirinkotan",
      "Type": "Stratovolcano"
    },
    "geometry": {
      "coordinates": [
        153.48,
        48.98
      ],
      "type": "Point"
    }
  },
  {
    "type": "Feature",
    "properties": {
      "Altitude": 1587.0,
      "Country": "Kuril Is",
      "Name": "Chirip",
      "Type": "Stratovolcanoes"
    },
    "geometry": {
      "coordinates": [
        147.93,
        45.34
      ],
      "type": "Point"
    }
  },
  {
    "type": "Feature",
    "properties": {
      "Altitude": 742.0,
      "Country": "Kuril Is",
      "Name": "Chirpoi",
      "Type": "Caldera"
    },
    "geometry": {
      "coordinates": [
        150.88,
        46.53
      ],
      "type": "Point"
    }
  },
  {
    "type": "Feature",
    "properties": {
      "Altitude": 2233.0,
      "Country": "Honshu-Japan",
      "Name": "Chokai",
      "Type": "Stratovolcanoes"
    },
    "geometry": {
      "coordinates": [
        140.05,
        39.1
      ],
      "type": "Point"
    }
  },
  {
    "type": "Feature",
    "properties": {
      "Altitude": 452.0,
      "Country": "Korea",
      "Name": "Ch'uga-ryong",
      "Type": "Shield volcano"
    },
    "geometry": {
      "coordinates": [
        127.33,
        38.33
      ],
      "type": "Point"
    }
  },
  {
    "type": "Feature",
    "properties": {
      "Altitude": 5005.0,
      "Country": "Alaska-E",
      "Name": "Churchill",
      "Type": "Stratovolcano"
    },
    "geometry": {
      "coordinates": [
        -141.75,
        61.38
      ],
      "type": "Point"
    }
  },
  {
    "type": "Feature",
    "properties": {
      "Altitude": 2188.0,
      "Country": "Africa-E",
      "Name": "Chyulu Hills",
      "Type": "Volcanic field"
    },
    "geometry": {
      "coordinates": [
        37.88,
        -2.68
      ],
      "type": "Point"
    }
  },
  {
    "type": "Feature",
    "properties": {
      "Altitude": 603.0,
      "Country": "Nicaragua",
      "Name": "Ciguatepe: Cerro el",
      "Type": "Stratovolcano"
    },
    "geometry": {
      "coordinates": [
        -86.14,
        12.53
      ],
      "type": "Point"
    }
  },
  {
    "type": "Feature",
    "properties": {
      "Altitude": 1956.0,
      "Country": "US-Oregon",
      "Name": "Cinnamon Butte",
      "Type": "Cinder cones"
    },
    "geometry": {
      "coordinates": [
        -122.11,
        43.24
      ],
      "type": "Point"
    }
  },
  {
    "type": "Feature",
    "properties": {
      "Altitude": 665.0,
      "Country": "El Salvador",
      "Name": "Cinotepeque: Cerro",
      "Type": "Volcanic field"
    },
    "geometry": {
      "coordinates": [
        -89.25,
        14.02
      ],
      "type": "Point"
    }
  },
  {
    "type": "Feature",
    "properties": {
      "Altitude": -860.0,
      "Country": "New Zealand",
      "Name": "Clark",
      "Type": "Submarine volcano"
    },
    "geometry": {
      "coordinates": [
        177.84,
        -36.45
      ],
      "type": "Point"
    }
  },
  {
    "type": "Feature",
    "properties": {
      "Altitude": 1439.0,
      "Country": "US-California",
      "Name": "Clear Lake",
      "Type": "Volcanic field"
    },
    "geometry": {
      "coordinates": [
        -122.77,
        38.97
      ],
      "type": "Point"
    }
  },
  {
    "type": "Feature",
    "properties": {
      "Altitude": -2140.0,
      "Country": "Pacific-NE",
      "Name": "Cleft Segment",
      "Type": "Submarine volcano"
    },
    "geometry": {
      "coordinates": [
        -130.3,
        44.83
      ],
      "type": "Point"
    }
  },
  {
    "type": "Feature",
    "properties": {
      "Altitude": 1730.0,
      "Country": "Aleutian Is",
      "Name": "Cleveland",
      "Type": "Stratovolcano"
    },
    "geometry": {
      "coordinates": [
        -169.94,
        52.83
      ],
      "type": "Point"
    }
  },
  {
    "type": "Feature",
    "properties": {
      "Altitude": 746.0,
      "Country": "El Salvador",
      "Name": "Coatepeque Caldera",
      "Type": "Caldera"
    },
    "geometry": {
      "coordinates": [
        -89.55,
        13.87
      ],
      "type": "Point"
    }
  },
  {
    "type": "Feature",
    "properties": {
      "Altitude": -2400.0,
      "Country": "Pacific-NE",
      "Name": "CoAxial Segment",
      "Type": "Submarine volcano"
    },
    "geometry": {
      "coordinates": [
        -129.58,
        46.52
      ],
      "type": "Point"
    }
  },
  {
    "type": "Feature",
    "properties": {
      "Altitude": -2100.0,
      "Country": "Pacific-NE",
      "Name": "Cobb Segment",
      "Type": "Submarine volcano"
    },
    "geometry": {
      "coordinates": [
        -129.33,
        46.88
      ],
      "type": "Point"
    }
  },
  {
    "type": "Feature",
    "properties": {
      "Altitude": 1435.0,
      "Country": "Argentina",
      "Name": "Cochiquito Volc Group",
      "Type": "Stratovolcanoes"
    },
    "geometry": {
      "coordinates": [
        -69.82,
        -36.77
      ],
      "type": "Point"
    }
  },
  {
    "type": "Feature",
    "properties": {
      "Altitude": 775.0,
      "Country": "Indian O.-S",
      "Name": "Cochons: Ile aux",
      "Type": "Stratovolcano"
    },
    "geometry": {
      "coordinates": [
        50.23,
        -46.1
      ],
      "type": "Point"
    }
  },
  {
    "type": "Feature",
    "properties": {
      "Altitude": 4282.0,
      "Country": "Mexico",
      "Name": "Cofre de Perote",
      "Type": "Shield volcanoes"
    },
    "geometry": {
      "coordinates": [
        -97.15,
        19.49
      ],
      "type": "Point"
    }
  },
  {
    "type": "Feature",
    "properties": {
      "Altitude": 5631.0,
      "Country": "Chile-N",
      "Name": "Colachi",
      "Type": "Stratovolcano"
    },
    "geometry": {
      "coordinates": [
        -67.65,
        -23.24
      ],
      "type": "Point"
    }
  },
  {
    "type": "Feature",
    "properties": {
      "Altitude": "",
      "Country": "Solomon Is-SW Pacific",
      "Name": "Coleman Seamount",
      "Type": "Submarine volcano"
    },
    "geometry": {
      "coordinates": [
        157.17,
        -8.83
      ],
      "type": "Point"
    }
  },
  {
    "type": "Feature",
    "properties": {
      "Altitude": 3850.0,
      "Country": "Mexico",
      "Name": "Colima",
      "Type": "Stratovolcanoes"
    },
    "geometry": {
      "coordinates": [
        -103.62,
        19.51
      ],
      "type": "Point"
    }
  },
  {
    "type": "Feature",
    "properties": {
      "Altitude": 507.0,
      "Country": "Sulawesi-Indonesia",
      "Name": "Colo [Una Una]",
      "Type": "Stratovolcano"
    },
    "geometry": {
      "coordinates": [
        121.61,
        -0.17
      ],
      "type": "Point"
    }
  },
  {
    "type": "Feature",
    "properties": {
      "Altitude": 780.0,
      "Country": "Mexico",
      "Name": "Comond -La Pur sima",
      "Type": "Volcanic field"
    },
    "geometry": {
      "coordinates": [
        -111.92,
        26.0
      ],
      "type": "Point"
    }
  },
  {
    "type": "Feature",
    "properties": {
      "Altitude": 1700.0,
      "Country": "Nicaragua",
      "Name": "Concepci n",
      "Type": "Stratovolcano"
    },
    "geometry": {
      "coordinates": [
        -85.62,
        11.54
      ],
      "type": "Point"
    }
  },
  {
    "type": "Feature",
    "properties": {
      "Altitude": 1225.0,
      "Country": "El Salvador",
      "Name": "Conchagua",
      "Type": "Stratovolcano"
    },
    "geometry": {
      "coordinates": [
        -87.85,
        13.28
      ],
      "type": "Point"
    }
  },
  {
    "type": "Feature",
    "properties": {
      "Altitude": 505.0,
      "Country": "El Salvador",
      "Name": "Conchag ita",
      "Type": "Stratovolcano"
    },
    "geometry": {
      "coordinates": [
        -87.77,
        13.23
      ],
      "type": "Point"
    }
  },
  {
    "type": "Feature",
    "properties": {
      "Altitude": 6532.0,
      "Country": "Argentina",
      "Name": "C ndor: Cerro el",
      "Type": "Stratovolcano"
    },
    "geometry": {
      "coordinates": [
        -68.35,
        -26.62
      ],
      "type": "Point"
    }
  },
  {
    "type": "Feature",
    "properties": {
      "Altitude": 2997.0,
      "Country": "Chile-C",
      "Name": "Copahue",
      "Type": "Stratovolcano"
    },
    "geometry": {
      "coordinates": [
        -71.17,
        -37.85
      ],
      "type": "Point"
    }
  },
  {
    "type": "Feature",
    "properties": {
      "Altitude": 6052.0,
      "Country": "Chile-N",
      "Name": "Copiap",
      "Type": "Stratovolcano"
    },
    "geometry": {
      "coordinates": [
        -69.13,
        -27.3
      ],
      "type": "Point"
    }
  },
  {
    "type": "Feature",
    "properties": {
      "Altitude": 2320.0,
      "Country": "Ethiopia",
      "Name": "Corbetti Caldera",
      "Type": "Caldera"
    },
    "geometry": {
      "coordinates": [
        38.43,
        7.18
      ],
      "type": "Point"
    }
  },
  {
    "type": "Feature",
    "properties": {
      "Altitude": 2300.0,
      "Country": "Chile-S",
      "Name": "Corcovado",
      "Type": "Stratovolcano"
    },
    "geometry": {
      "coordinates": [
        -72.8,
        -43.18
      ],
      "type": "Point"
    }
  },
  {
    "type": "Feature",
    "properties": {
      "Altitude": 5852.0,
      "Country": "Chile-N",
      "Name": "Cordon de Puntas Negras",
      "Type": "Stratovolcanoes"
    },
    "geometry": {
      "coordinates": [
        -67.53,
        -23.74
      ],
      "type": "Point"
    }
  },
  {
    "type": "Feature",
    "properties": {
      "Altitude": 5463.0,
      "Country": "Chile-N",
      "Name": "Cordon del Azufre",
      "Type": "Complex volcano"
    },
    "geometry": {
      "coordinates": [
        -68.52,
        -25.33
      ],
      "type": "Point"
    }
  },
  {
    "type": "Feature",
    "properties": {
      "Altitude": 440.0,
      "Country": "Mexico",
      "Name": "Coronado",
      "Type": "Stratovolcano"
    },
    "geometry": {
      "coordinates": [
        -113.51,
        29.08
      ],
      "type": "Point"
    }
  },
  {
    "type": "Feature",
    "properties": {
      "Altitude": 6377.0,
      "Country": "Peru",
      "Name": "Coropuna",
      "Type": "Stratovolcano"
    },
    "geometry": {
      "coordinates": [
        -72.65,
        -15.52
      ],
      "type": "Point"
    }
  },
  {
    "type": "Feature",
    "properties": {
      "Altitude": 718.0,
      "Country": "Azores",
      "Name": "Corvo",
      "Type": "Stratovolcano"
    },
    "geometry": {
      "coordinates": [
        -31.11,
        39.7
      ],
      "type": "Point"
    }
  },
  {
    "type": "Feature",
    "properties": {
      "Altitude": 872.0,
      "Country": "Nicaragua",
      "Name": "Cosiguina",
      "Type": "Stratovolcano"
    },
    "geometry": {
      "coordinates": [
        -87.57,
        12.98
      ],
      "type": "Point"
    }
  },
  {
    "type": "Feature",
    "properties": {
      "Altitude": 2400.0,
      "Country": "US-California",
      "Name": "Coso Volc Field",
      "Type": "Lava domes"
    },
    "geometry": {
      "coordinates": [
        -117.82,
        36.03
      ],
      "type": "Point"
    }
  },
  {
    "type": "Feature",
    "properties": {
      "Altitude": 5911.0,
      "Country": "Ecuador",
      "Name": "Cotopaxi",
      "Type": "Stratovolcano"
    },
    "geometry": {
      "coordinates": [
        -78.44,
        -0.68
      ],
      "type": "Point"
    }
  },
  {
    "type": "Feature",
    "properties": {
      "Altitude": 1359.0,
      "Country": "Chile-S/Argentina",
      "Name": "Crater Basalt Volc Field",
      "Type": "Cinder cones"
    },
    "geometry": {
      "coordinates": [
        -70.18,
        -42.02
      ],
      "type": "Point"
    }
  },
  {
    "type": "Feature",
    "properties": {
      "Altitude": 2487.0,
      "Country": "US-Oregon",
      "Name": "Crater Lake",
      "Type": "Caldera"
    },
    "geometry": {
      "coordinates": [
        -122.12,
        42.93
      ],
      "type": "Point"
    }
  },
  {
    "type": "Feature",
    "properties": {
      "Altitude": 3233.0,
      "Country": "New Guinea",
      "Name": "Crater Mountain",
      "Type": "Stratovolcano"
    },
    "geometry": {
      "coordinates": [
        145.08,
        -6.58
      ],
      "type": "Point"
    }
  },
  {
    "type": "Feature",
    "properties": {
      "Altitude": 2005.0,
      "Country": "US-Idaho",
      "Name": "Craters of the Moon",
      "Type": "Cinder cones"
    },
    "geometry": {
      "coordinates": [
        -113.5,
        43.42
      ],
      "type": "Point"
    }
  },
  {
    "type": "Feature",
    "properties": {
      "Altitude": 335.0,
      "Country": "Canada",
      "Name": "Crow Lagoon",
      "Type": "Pyroclastic cone"
    },
    "geometry": {
      "coordinates": [
        -130.23,
        54.7
      ],
      "type": "Point"
    }
  },
  {
    "type": "Feature",
    "properties": {
      "Altitude": 1862.0,
      "Country": "Philippines-C",
      "Name": "Cuernos de Negros",
      "Type": "Complex volcano"
    },
    "geometry": {
      "coordinates": [
        123.17,
        9.25
      ],
      "type": "Point"
    }
  },
  {
    "type": "Feature",
    "properties": {
      "Altitude": 1862.0,
      "Country": "Chile-S",
      "Name": "Cuernos del Diablo",
      "Type": "Stratovolcano"
    },
    "geometry": {
      "coordinates": [
        -72.0,
        -41.4
      ],
      "type": "Point"
    }
  },
  {
    "type": "Feature",
    "properties": {
      "Altitude": 3246.0,
      "Country": "Ecuador",
      "Name": "Cuicocha",
      "Type": "Caldera"
    },
    "geometry": {
      "coordinates": [
        -78.36,
        0.31
      ],
      "type": "Point"
    }
  },
  {
    "type": "Feature",
    "properties": {
      "Altitude": 1454.0,
      "Country": "Guatemala",
      "Name": "Cuilapa-Barbarena",
      "Type": "Volcanic field"
    },
    "geometry": {
      "coordinates": [
        -90.4,
        14.33
      ],
      "type": "Point"
    }
  },
  {
    "type": "Feature",
    "properties": {
      "Altitude": 181.0,
      "Country": "SE Asia",
      "Name": "C -Lao R  Group",
      "Type": "Volcanic field"
    },
    "geometry": {
      "coordinates": [
        109.12,
        15.38
      ],
      "type": "Point"
    }
  },
  {
    "type": "Feature",
    "properties": {
      "Altitude": 4764.0,
      "Country": "Colombia",
      "Name": "Cumbal",
      "Type": "Stratovolcano"
    },
    "geometry": {
      "coordinates": [
        -77.87,
        0.95
      ],
      "type": "Point"
    }
  },
  {
    "type": "Feature",
    "properties": {
      "Altitude": 3940.0,
      "Country": "Mexico",
      "Name": "Cumbres: Las",
      "Type": "Stratovolcano"
    },
    "geometry": {
      "coordinates": [
        -97.27,
        19.15
      ],
      "type": "Point"
    }
  },
  {
    "type": "Feature",
    "properties": {
      "Altitude": -33.0,
      "Country": "Tonga-SW Pacific",
      "Name": "Curacoa",
      "Type": "Submarine volcano"
    },
    "geometry": {
      "coordinates": [
        -173.67,
        -15.62
      ],
      "type": "Point"
    }
  },
  {
    "type": "Feature",
    "properties": {
      "Altitude": 137.0,
      "Country": "Kermadec Is",
      "Name": "Curtis Island",
      "Type": "Submarine volcano"
    },
    "geometry": {
      "coordinates": [
        -178.56,
        -30.54
      ],
      "type": "Point"
    }
  },
  {
    "type": "Feature",
    "properties": {
      "Altitude": 1442.0,
      "Country": "Ethiopia",
      "Name": "Dabbahu",
      "Type": "Stratovolcano"
    },
    "geometry": {
      "coordinates": [
        40.48,
        12.6
      ],
      "type": "Point"
    }
  },
  {
    "type": "Feature",
    "properties": {
      "Altitude": 1302.0,
      "Country": "Ethiopia",
      "Name": "Dabbayra",
      "Type": "Shield volcano"
    },
    "geometry": {
      "coordinates": [
        40.07,
        12.38
      ],
      "type": "Point"
    }
  },
  {
    "type": "Feature",
    "properties": {
      "Altitude": 3800.0,
      "Country": "Afghanistan",
      "Name": "Dacht-i-Navar Group",
      "Type": "Lava domes"
    },
    "geometry": {
      "coordinates": [
        67.92,
        33.95
      ],
      "type": "Point"
    }
  },
  {
    "type": "Feature",
    "properties": {
      "Altitude": -323.0,
      "Country": "Volcano Is-Japan",
      "Name": "Daikoku",
      "Type": "Submarine volcano"
    },
    "geometry": {
      "coordinates": [
        144.19,
        21.32
      ],
      "type": "Point"
    }
  },
  {
    "type": "Feature",
    "properties": {
      "Altitude": 2290.0,
      "Country": "Hokkaido-Japan",
      "Name": "Daisetsu",
      "Type": "Stratovolcanoes"
    },
    "geometry": {
      "coordinates": [
        142.86,
        43.66
      ],
      "type": "Point"
    }
  },
  {
    "type": "Feature",
    "properties": {
      "Altitude": 400.0,
      "Country": "New Britain-SW Pac",
      "Name": "Dakataua",
      "Type": "Caldera"
    },
    "geometry": {
      "coordinates": [
        150.11,
        -5.06
      ],
      "type": "Point"
    }
  },
  {
    "type": "Feature",
    "properties": {
      "Altitude": 613.0,
      "Country": "Ethiopia",
      "Name": "Dalaffilla",
      "Type": "Stratovolcano"
    },
    "geometry": {
      "coordinates": [
        40.55,
        13.79
      ],
      "type": "Point"
    }
  },
  {
    "type": "Feature",
    "properties": {
      "Altitude": -48.0,
      "Country": "Ethiopia",
      "Name": "Dallol",
      "Type": "Explosion craters"
    },
    "geometry": {
      "coordinates": [
        40.3,
        14.24
      ],
      "type": "Point"
    }
  },
  {
    "type": "Feature",
    "properties": {
      "Altitude": 1068.0,
      "Country": "Ethiopia",
      "Name": "Dama Ali",
      "Type": "Shield volcano"
    },
    "geometry": {
      "coordinates": [
        41.63,
        11.28
      ],
      "type": "Point"
    }
  },
  {
    "type": "Feature",
    "properties": {
      "Altitude": 5670.0,
      "Country": "Iran",
      "Name": "Damavand",
      "Type": "Stratovolcano"
    },
    "geometry": {
      "coordinates": [
        52.11,
        35.95
      ],
      "type": "Point"
    }
  },
  {
    "type": "Feature",
    "properties": {
      "Altitude": 1354.0,
      "Country": "Alaska Peninsula",
      "Name": "Dana",
      "Type": "Stratovolcano"
    },
    "geometry": {
      "coordinates": [
        -161.21,
        55.64
      ],
      "type": "Point"
    }
  },
  {
    "type": "Feature",
    "properties": {
      "Altitude": 3329.0,
      "Country": "Armenia",
      "Name": "Dar-Alages",
      "Type": "Pyroclastic cones"
    },
    "geometry": {
      "coordinates": [
        45.54,
        39.7
      ],
      "type": "Point"
    }
  },
  {
    "type": "Feature",
    "properties": {
      "Altitude": 1778.0,
      "Country": "Mongolia",
      "Name": "Dariganga Volc Field",
      "Type": "Cinder cones"
    },
    "geometry": {
      "coordinates": [
        114.0,
        45.33
      ],
      "type": "Point"
    }
  },
  {
    "type": "Feature",
    "properties": {
      "Altitude": 1330.0,
      "Country": "Gal pagos",
      "Name": "Darwin",
      "Type": "Shield volcano"
    },
    "geometry": {
      "coordinates": [
        -91.28,
        -0.18
      ],
      "type": "Point"
    }
  },
  {
    "type": "Feature",
    "properties": {
      "Altitude": 2467.0,
      "Country": "Sumatra",
      "Name": "Daun: Bukit",
      "Type": "Stratovolcanoes"
    },
    "geometry": {
      "coordinates": [
        102.37,
        -3.38
      ],
      "type": "Point"
    }
  },
  {
    "type": "Feature",
    "properties": {
      "Altitude": 328.0,
      "Country": "Aleutian Is",
      "Name": "Davidof",
      "Type": "Stratovolcano"
    },
    "geometry": {
      "coordinates": [
        178.33,
        51.97
      ],
      "type": "Point"
    }
  },
  {
    "type": "Feature",
    "properties": {
      "Altitude": 2163.0,
      "Country": "US-Oregon",
      "Name": "Davis Lake",
      "Type": "Volcanic field"
    },
    "geometry": {
      "coordinates": [
        -121.82,
        43.57
      ],
      "type": "Point"
    }
  },
  {
    "type": "Feature",
    "properties": {
      "Altitude": 500.0,
      "Country": "D'Entrecasteaux Is",
      "Name": "Dawson Strait Group",
      "Type": "Volcanic field"
    },
    "geometry": {
      "coordinates": [
        150.88,
        -9.62
      ],
      "type": "Point"
    }
  },
  {
    "type": "Feature",
    "properties": {
      "Altitude": 576.0,
      "Country": "Antarctica",
      "Name": "Deception Island",
      "Type": "Caldera"
    },
    "geometry": {
      "coordinates": [
        -60.65,
        -62.97
      ],
      "type": "Point"
    }
  },
  {
    "type": "Feature",
    "properties": {
      "Altitude": 1205.0,
      "Country": "Kuril Is",
      "Name": "Demon",
      "Type": "Stratovolcano"
    },
    "geometry": {
      "coordinates": [
        148.85,
        45.5
      ],
      "type": "Point"
    }
  },
  {
    "type": "Feature",
    "properties": {
      "Altitude": 3173.0,
      "Country": "Sumatra",
      "Name": "Dempo",
      "Type": "Stratovolcano"
    },
    "geometry": {
      "coordinates": [
        103.13,
        -4.03
      ],
      "type": "Point"
    }
  },
  {
    "type": "Feature",
    "properties": {
      "Altitude": 2287.0,
      "Country": "Alaska Peninsula",
      "Name": "Denison",
      "Type": "Stratovolcano"
    },
    "geometry": {
      "coordinates": [
        -154.45,
        58.42
      ],
      "type": "Point"
    }
  },
  {
    "type": "Feature",
    "properties": {
      "Altitude": 3953.0,
      "Country": "Chile-C",
      "Name": "Descabezado Grande",
      "Type": "Stratovolcanoes"
    },
    "geometry": {
      "coordinates": [
        -70.75,
        -35.58
      ],
      "type": "Point"
    }
  },
  {
    "type": "Feature",
    "properties": {
      "Altitude": 1698.0,
      "Country": "US-Oregon",
      "Name": "Devils Garden",
      "Type": "Volcanic field"
    },
    "geometry": {
      "coordinates": [
        -120.86,
        43.51
      ],
      "type": "Point"
    }
  },
  {
    "type": "Feature",
    "properties": {
      "Altitude": 1558.0,
      "Country": "US-Wyoming",
      "Name": "Devils Tower",
      "Type": "Volcanic Landform"
    },
    "geometry": {
      "coordinates": [
        -104.7,
        44.6
      ],
      "type": "Point"
    }
  },
  {
    "type": "Feature",
    "properties": {
      "Altitude": 3500.0,
      "Country": "Arabia-S",
      "Name": "Dhamar: Harras of",
      "Type": "Volcanic field"
    },
    "geometry": {
      "coordinates": [
        44.67,
        14.57
      ],
      "type": "Point"
    }
  },
  {
    "type": "Feature",
    "properties": {
      "Altitude": 861.0,
      "Country": "W Indies",
      "Name": "Diables: Morne aux",
      "Type": "Stratovolcano"
    },
    "geometry": {
      "coordinates": [
        -61.43,
        15.61
      ],
      "type": "Point"
    }
  },
  {
    "type": "Feature",
    "properties": {
      "Altitude": 1430.0,
      "Country": "W Indies",
      "Name": "Diablotins: Morne",
      "Type": "Stratovolcano"
    },
    "geometry": {
      "coordinates": [
        -61.4,
        15.5
      ],
      "type": "Point"
    }
  },
  {
    "type": "Feature",
    "properties": {
      "Altitude": 1435.0,
      "Country": "US-Oregon",
      "Name": "Diamond Craters",
      "Type": "Volcanic field"
    },
    "geometry": {
      "coordinates": [
        -118.75,
        43.1
      ],
      "type": "Point"
    }
  },
  {
    "type": "Feature",
    "properties": {
      "Altitude": 228.0,
      "Country": "Luzon-N of",
      "Name": "Didicas",
      "Type": "Compound volcano"
    },
    "geometry": {
      "coordinates": [
        122.2,
        19.08
      ],
      "type": "Point"
    }
  },
  {
    "type": "Feature",
    "properties": {
      "Altitude": 2565.0,
      "Country": "Java",
      "Name": "Dieng Volc Complex",
      "Type": "Complex volcano"
    },
    "geometry": {
      "coordinates": [
        109.92,
        -7.2
      ],
      "type": "Point"
    }
  },
  {
    "type": "Feature",
    "properties": {
      "Altitude": 1070.0,
      "Country": "Kamchatka",
      "Name": "Diky Greben",
      "Type": "Lava domes"
    },
    "geometry": {
      "coordinates": [
        156.97,
        51.45
      ],
      "type": "Point"
    }
  },
  {
    "type": "Feature",
    "properties": {
      "Altitude": 1151.0,
      "Country": "Ethiopia",
      "Name": "Dofen",
      "Type": "Stratovolcano"
    },
    "geometry": {
      "coordinates": [
        40.13,
        9.35
      ],
      "type": "Point"
    }
  },
  {
    "type": "Feature",
    "properties": {
      "Altitude": 3568.0,
      "Country": "New Guinea",
      "Name": "Doma Peaks",
      "Type": "Stratovolcano"
    },
    "geometry": {
      "coordinates": [
        143.15,
        -5.9
      ],
      "type": "Point"
    }
  },
  {
    "type": "Feature",
    "properties": {
      "Altitude": 4709.0,
      "Country": "Argentina",
      "Name": "Domuyo",
      "Type": "Stratovolcano"
    },
    "geometry": {
      "coordinates": [
        -70.42,
        -36.58
      ],
      "type": "Point"
    }
  },
  {
    "type": "Feature",
    "properties": {
      "Altitude": -13.0,
      "Country": "Azores",
      "Name": "Don Joao de Castro Bank",
      "Type": "Submarine volcano"
    },
    "geometry": {
      "coordinates": [
        -26.63,
        38.23
      ],
      "type": "Point"
    }
  },
  {
    "type": "Feature",
    "properties": {
      "Altitude": 4150.0,
      "Country": "Colombia",
      "Name": "Do a Juana",
      "Type": "Stratovolcano"
    },
    "geometry": {
      "coordinates": [
        -76.92,
        1.47
      ],
      "type": "Point"
    }
  },
  {
    "type": "Feature",
    "properties": {
      "Altitude": 2230.0,
      "Country": "US-Colorado",
      "Name": "Dotsero",
      "Type": "Maar"
    },
    "geometry": {
      "coordinates": [
        -107.04,
        39.66
      ],
      "type": "Point"
    }
  },
  {
    "type": "Feature",
    "properties": {
      "Altitude": 2140.0,
      "Country": "Alaska Peninsula",
      "Name": "Douglas",
      "Type": "Stratovolcano"
    },
    "geometry": {
      "coordinates": [
        -153.54,
        58.86
      ],
      "type": "Point"
    }
  },
  {
    "type": "Feature",
    "properties": {
      "Altitude": -860.0,
      "Country": "Izu Is-Japan",
      "Name": "Doyo Seamount",
      "Type": "Submarine volcano"
    },
    "geometry": {
      "coordinates": [
        140.8,
        27.68
      ],
      "type": "Point"
    }
  },
  {
    "type": "Feature",
    "properties": {
      "Altitude": 1803.0,
      "Country": "Syria",
      "Name": "Druze: Jabal ad",
      "Type": "Volcanic field"
    },
    "geometry": {
      "coordinates": [
        36.43,
        32.66
      ],
      "type": "Point"
    }
  },
  {
    "type": "Feature",
    "properties": {
      "Altitude": 1625.0,
      "Country": "Ethiopia",
      "Name": "Dubbi",
      "Type": "Stratovolcano"
    },
    "geometry": {
      "coordinates": [
        41.81,
        13.58
      ],
      "type": "Point"
    }
  },
  {
    "type": "Feature",
    "properties": {
      "Altitude": 1335.0,
      "Country": "Halmahera-Indonesia",
      "Name": "Dukono",
      "Type": "Complex volcano"
    },
    "geometry": {
      "coordinates": [
        127.88,
        1.68
      ],
      "type": "Point"
    }
  },
  {
    "type": "Feature",
    "properties": {
      "Altitude": 15.0,
      "Country": "Alaska-E",
      "Name": "Duncan Canal",
      "Type": "Volcanic field"
    },
    "geometry": {
      "coordinates": [
        -133.1,
        56.5
      ],
      "type": "Point"
    }
  },
  {
    "type": "Feature",
    "properties": {
      "Altitude": 2075.0,
      "Country": "Mexico",
      "Name": "Durango Volc Field",
      "Type": "Cinder cones"
    },
    "geometry": {
      "coordinates": [
        -104.45,
        24.15
      ],
      "type": "Point"
    }
  },
  {
    "type": "Feature",
    "properties": {
      "Altitude": 1506.0,
      "Country": "Alaska Peninsula",
      "Name": "Dutton",
      "Type": "Stratovolcano"
    },
    "geometry": {
      "coordinates": [
        -162.27,
        55.17
      ],
      "type": "Point"
    }
  },
  {
    "type": "Feature",
    "properties": {
      "Altitude": 2285.0,
      "Country": "Kamchatka",
      "Name": "Dzenzursky",
      "Type": "Compound volcano"
    },
    "geometry": {
      "coordinates": [
        158.92,
        53.64
      ],
      "type": "Point"
    }
  },
  {
    "type": "Feature",
    "properties": {
      "Altitude": 1652.0,
      "Country": "US-California",
      "Name": "Eagle Lake Field",
      "Type": "Fissure vents"
    },
    "geometry": {
      "coordinates": [
        -120.83,
        40.63
      ],
      "type": "Point"
    }
  },
  {
    "type": "Feature",
    "properties": {
      "Altitude": -127.0,
      "Country": "Mariana Is-C Pacific",
      "Name": "East Diamante",
      "Type": "Submarine volcano"
    },
    "geometry": {
      "coordinates": [
        145.67,
        15.93
      ],
      "type": "Point"
    }
  },
  {
    "type": "Feature",
    "properties": {
      "Altitude": 1889.0,
      "Country": "Ethiopia",
      "Name": "East Zway",
      "Type": "Fissure vents"
    },
    "geometry": {
      "coordinates": [
        38.93,
        7.95
      ],
      "type": "Point"
    }
  },
  {
    "type": "Feature",
    "properties": {
      "Altitude": 511.0,
      "Country": "Chile-Is",
      "Name": "Easter Island",
      "Type": "Shield volcanoes"
    },
    "geometry": {
      "coordinates": [
        -109.38,
        -27.15
      ],
      "type": "Point"
    }
  },
  {
    "type": "Feature",
    "properties": {
      "Altitude": -80.0,
      "Country": "SW Pacific",
      "Name": "Eastern Gemini Seamount",
      "Type": "Submarine volcano"
    },
    "geometry": {
      "coordinates": [
        170.28,
        -20.98
      ],
      "type": "Point"
    }
  },
  {
    "type": "Feature",
    "properties": {
      "Altitude": 1156.0,
      "Country": "Kuril Is",
      "Name": "Ebeko",
      "Type": "Somma volcano"
    },
    "geometry": {
      "coordinates": [
        156.02,
        50.68
      ],
      "type": "Point"
    }
  },
  {
    "type": "Feature",
    "properties": {
      "Altitude": 2124.0,
      "Country": "Lesser Sunda Is",
      "Name": "Ebulobo",
      "Type": "Stratovolcano"
    },
    "geometry": {
      "coordinates": [
        121.18,
        -8.82
      ],
      "type": "Point"
    }
  },